id,pm25,pm10,temp,hum,atm,loc,m1,m2,m3,m4,m5,m6,m7,m8,m9,m10.m11,m12,m13,m14,m15,m16
'A1',20.00,32.00,9.00,13.00,985.00,$GNGGA,200403.000,4900.5216,N,00825.4558,E,1,5,4.01,122.6,M,47.9,M,,*44
'A1',24.00,33.00,4.00,18.00,986.00,$GNGGA,200414.000,4900.5258,N,00825.4653,E,1,5,4.02,126.7,M,47.9,M,,*46
'A1',21.00,33.00,3.00,16.00,987.00,$GNGGA,200425.000,4900.5243,N,00825.4647,E,1,5,4.02,127.7,M,47.9,M,,*4A
'A1',22.00,32.00,4.00,14.00,988.00,$GNGGA,200436.000,4900.5247,N,00825.4588,E,1,5,4.03,128.7,M,47.9,M,,*42
'A1',24.00,34.00,8.00,14.00,989.00,$GNGGA,200447.000,4900.5238,N,00825.4652,E,1,5,4.03,127.4,M,47.9,M,,*44
'A1',24.00,32.00,7.00,15.00,990.00,$GNGGA,200458.000,4900.5204,N,00825.4815,E,1,5,4.04,127.7,M,47.9,M,,*4C
'A1',23.00,33.00,3.00,19.00,991.00,$GNGGA,200509.000,4900.5232,N,00825.4778,E,1,5,5.97,128.1,M,47.9,M,,*4A
'A1',23.00,32.00,2.00,16.00,992.00,$GNGGA,200520.000,4900.5216,N,00825.4721,E,1,5,4.05,127.1,M,47.9,M,,*4E
'A1',23.00,30.00,2.00,18.00,993.00,$GNGGA,200531.000,4900.5227,N,00825.4799,E,1,5,5.92,126.4,M,47.9,M,,*44
'A1',20.00,34.00,6.00,10.00,994.00,$GNGGA,200542.000,4900.5249,N,00825.4911,E,1,5,4.06,126.0,M,47.9,M,,*4E
'A1',22.00,31.00,3.00,18.00,995.00,$GNGGA,200553.000,4900.5223,N,00825.4849,E,1,4,4.91,125.1,M,47.9,M,,*43
'A1',24.00,32.00,3.00,17.00,996.00,$GNGGA,200604.000,4900.5219,N,00825.4851,E,1,4,4.92,123.7,M,47.9,M,,*41
'A1',21.00,34.00,6.00,17.00,997.00,$GNGGA,200615.000,4900.5206,N,00825.4702,E,1,4,4.93,121.3,M,47.9,M,,*41
'A1',22.00,31.00,9.00,14.00,998.00,$GNGGA,200626.000,4900.5171,N,00825.4789,E,1,4,4.93,120.8,M,47.9,M,,*4B
'A1',23.00,32.00,8.00,17.00,999.00,$GNGGA,200637.000,4900.5218,N,00825.4933,E,1,4,4.94,120.9,M,47.9,M,,*4E
'A1',24.00,32.00,7.00,17.00,1000.00,$GNGGA,200648.000,4900.5189,N,00825.4798,E,1,4,4.94,121.2,M,47.9,M,,*48
'A1',20.00,33.00,9.00,17.00,1001.00,$GNGGA,200659.000,4900.5215,N,00825.4505,E,1,4,4.95,120.9,M,47.9,M,,*43
'A1',21.00,32.00,9.00,13.00,1002.00,$GNGGA,200710.000,4900.5170,N,00825.4470,E,1,4,4.95,119.7,M,47.9,M,,*48
SSH-2.0-Renci.SshNet.SshClient.0.0.1
'A1',24.00,33.00,9.00,14.00,1003.00,$GNGGA,200721.000,4900.5156,N,00825.4464,E,1,4,4.96,117.9,M,47.9,M,,*48
'A1',22.00,34.00,2.00,19.00,1004.00,$GNGGA,200732.000,4900.5177,N,00825.4806,E,1,4,4.97,119.2,M,47.9,M,,*45
'A1',21.00,33.00,5.00,12.00,1005.00,$GNGGA,200743.000,4900.5191,N,00825.4936,E,1,4,4.97,120.4,M,47.9,M,,*45
'A1',23.00,34.00,3.00,12.00,1006.00,$GNGGA,200754.000,4900.5192,N,00825.4816,E,1,5,4.12,120.4,M,47.9,M,,*4F
'A1',23.00,32.00,9.00,12.00,1007.00,$GNGGA,200805.000,4900.5141,N,00825.4518,E,1,5,4.12,121.0,M,47.9,M,,*4C
'A1',23.00,32.00,9.00,18.00,1008.00,$GNGGA,200816.000,4900.5188,N,00825.4393,E,1,5,4.13,122.3,M,47.9,M,,*4F
'A1',24.00,31.00,7.00,12.00,1009.00,$GNGGA,200827.000,4900.5220,N,00825.4332,E,1,5,4.14,122.7,M,47.9,M,,*44
'A1',24.00,34.00,6.00,12.00,1010.00,$GNGGA,200838.000,4900.5204,N,00825.4470,E,1,5,4.14,125.5,M,47.9,M,,*48
'A1',22.00,33.00,5.00,19.00,1011.00,$GNGGA,200849.000,4900.5219,N,00825.4436,E,1,5,4.15,125.8,M,47.9,M,,*4C
'A1',23.00,31.00,9.00,10.00,1012.00,$GNGGA,200900.000,4900.5224,N,00825.4331,E,1,5,4.15,124.9,M,47.9,M,,*4E
'A1',21.00,30.00,9.00,11.00,1013.00,$GNGGA,200911.000,4900.5223,N,00825.4365,E,1,5,4.16,125.0,M,47.9,M,,*43
'A1',20.00,30.00,2.00,10.00,1014.00,$GNGGA,200922.000,4900.5231,N,00825.4497,E,1,5,4.16,122.8,M,47.9,M,,*45
'A1',22.00,33.00,6.00,16.00,1015.00,$GNGGA,200933.000,4900.5247,N,00825.4416,E,1,5,4.17,120.1,M,47.9,M,,*47
'A1',20.00,33.00,4.00,10.00,1016.00,$GNGGA,200944.000,4900.5242,N,00825.4404,E,1,5,4.17,119.7,M,47.9,M,,*4D
'A1',22.00,31.00,3.00,17.00,1017.00,$GNGGA,200955.000,4900.5236,N,00825.4409,E,1,5,4.18,119.5,M,47.9,M,,*4E
'A1',21.00,30.00,2.00,14.00,1018.00,$GNGGA,201006.000,4900.5232,N,00825.4410,E,1,5,4.19,119.7,M,47.9,M,,*4F
'A1',23.00,32.00,3.00,10.00,1019.00,$GNGGA,201017.000,4900.5241,N,00825.4477,E,1,5,4.19,119.3,M,47.9,M,,*4E
'A1',24.00,33.00,2.00,11.00,1020.00,$GNGGA,201028.000,4900.5237,N,00825.4569,E,1,5,4.20,117.6,M,47.9,M,,*4C
'A1',24.00,34.00,5.00,16.00,1021.00,$GNGGA,201039.000,4900.5217,N,00825.4486,E,1,5,4.20,116.0,M,47.9,M,,*49
'A1',23.00,33.00,2.00,11.00,1022.00,$GNGGA,201050.000,4900.5194,N,00825.4456,E,1,5,4.21,115.5,M,47.9,M,,*44
'A1',22.00,31.00,2.00,19.00,1023.00,$GNGGA,201101.000,4900.5193,N,00825.4312,E,1,5,4.22,115.8,M,47.9,M,,*4F
'A1',22.00,31.00,6.00,12.00,1024.00,$GNGGA,201112.000,4900.5210,N,00825.4310,E,1,5,4.22,115.8,M,47.9,M,,*47
'A1',21.00,32.00,3.00,17.00,1025.00,$GNGGA,201123.000,4900.5211,N,00825.4403,E,1,5,4.22,116.2,M,47.9,M,,*48
'A1',24.00,33.00,2.00,19.00,1026.00,$GNGGA,201134.000,4900.5204,N,00825.4468,E,1,5,4.23,117.3,M,47.9,M,,*46
GET / HTTP/1.1
Host: 2.tcp.ngrok.io:16185
User-Agent: Go-http-client/1.1
Accept-Encoding: gzip
Connection: close

'A1',24.00,30.00,7.00,14.00,1027.00,$GNGGA,201145.000,4900.5213,N,00825.4540,E,1,5,4.24,118.1,M,47.9,M,,*47
'A1',23.00,31.00,4.00,13.00,1028.00,$GNGGA,201156.000,4900.5206,N,00825.4554,E,1,5,4.24,117.5,M,47.9,M,,*4F
'A1',22.00,34.00,6.00,19.00,1029.00,$GNGGA,201207.000,4900.5216,N,00825.4467,E,1,5,4.25,116.5,M,47.9,M,,*48
'A1',23.00,31.00,7.00,10.00,1030.00,$GNGGA,201218.000,4900.5226,N,00825.4455,E,1,5,4.25,116.8,M,47.9,M,,*49
'A1',20.00,33.00,3.00,14.00,1031.00,$GNGGA,201230.000,4900.5222,N,00825.4466,E,1,5,4.26,117.6,M,47.9,M,,*4B
'A1',22.00,31.00,2.00,10.00,1032.00,$GNGGA,201241.000,4900.5225,N,00825.4397,E,1,5,4.27,118.5,M,47.9,M,,*4E
'A1',23.00,32.00,4.00,15.00,1033.00,$GNGGA,201252.000,4900.5214,N,00825.4295,E,1,5,4.27,119.0,M,47.9,M,,*49
'A1',23.00,32.00,7.00,18.00,1034.00,$GNGGA,201303.000,4900.5227,N,00825.4252,E,1,5,4.28,121.1,M,47.9,M,,*42
'A1',23.00,32.00,7.00,11.00,1035.00,$GNGGA,201314.000,4900.5233,N,00825.4434,E,1,5,4.29,121.9,M,47.9,M,,*4E
'A1',23.00,32.00,2.00,14.00,1036.00,$GNGGA,201325.000,4900.5221,N,00825.4644,E,1,5,4.29,121.0,M,47.9,M,,*43
'A1',21.00,31.00,6.00,18.00,1037.00,$GNGGA,201336.000,4900.5198,N,00825.4473,E,1,5,4.30,120.2,M,47.9,M,,*4D
'A1',23.00,30.00,2.00,13.00,1038.00,$GNGGA,201347.000,4900.5180,N,00825.4443,E,1,5,4.30,120.4,M,47.9,M,,*47
'A1',20.00,33.00,9.00,17.00,1039.00,$GNGGA,201358.000,4900.5196,N,00825.4358,E,1,5,4.31,121.0,M,47.9,M,,*47
'A1',24.00,33.00,8.00,16.00,1040.00,$GNGGA,201409.000,4900.5223,N,00825.4357,E,1,5,5.17,121.0,M,47.9,M,,*43
'A1',20.00,31.00,4.00,10.00,1041.00,$GNGGA,201420.000,4900.5236,N,00825.4461,E,1,5,4.32,120.8,M,47.9,M,,*41
'A1',23.00,31.00,6.00,18.00,1042.00,$GNGGA,201431.000,4900.5240,N,00825.4556,E,1,4,6.33,120.4,M,47.9,M,,*4B
'A1',24.00,31.00,2.00,19.00,1043.00,$GNGGA,201442.000,4900.5235,N,00825.4604,E,1,4,6.35,119.8,M,47.9,M,,*49
'A1',22.00,33.00,5.00,17.00,1044.00,$GNGGA,201453.000,4900.5240,N,00825.4561,E,1,4,6.38,119.0,M,47.9,M,,*4E
'A1',21.00,32.00,3.00,16.00,1045.00,$GNGGA,201504.000,4900.5238,N,00825.4558,E,1,5,4.34,118.8,M,47.9,M,,*4E
'A1',20.00,32.00,8.00,16.00,1046.00,$GNGGA,201515.000,4900.5221,N,00825.4475,E,1,5,4.35,118.9,M,47.9,M,,*48
'A1',20.00,32.00,9.00,14.00,1047.00,$GNGGA,201526.000,4900.5205,N,00825.4402,E,1,5,4.35,118.9,M,47.9,M,,*4E
'A1',20.00,33.00,8.00,11.00,1048.00,$GNGGA,201537.000,4900.5192,N,00825.4271,E,1,4,6.47,119.3,M,47.9,M,,*4C
'A1',22.00,34.00,9.00,13.00,1049.00,$GNGGA,201548.000,4900.5195,N,00825.4265,E,1,4,6.49,119.8,M,47.9,M,,*43
'A1',23.00,32.00,3.00,11.00,1050.00,$GNGGA,201559.000,4900.5207,N,00825.4388,E,1,4,6.51,119.9,M,47.9,M,,*41
'A1',20.00,30.00,8.00,16.00,1051.00,$GNGGA,201610.000,4900.5238,N,00825.4542,E,1,4,6.53,119.5,M,47.9,M,,*4D
'A1',22.00,32.00,2.00,16.00,1052.00,$GNGGA,201621.000,4900.5252,N,00825.4737,E,1,4,6.55,120.4,M,47.9,M,,*4E
'A1',22.00,30.00,6.00,15.00,1053.00,$GNGGA,201632.000,4900.5238,N,00825.4721,E,1,4,6.58,121.5,M,47.9,M,,*4A
'A1',21.00,30.00,6.00,19.00,1054.00,$GNGGA,201643.000,4900.5219,N,00825.4630,E,1,4,6.60,121.7,M,47.9,M,,*47
'A1',22.00,33.00,4.00,12.00,1055.00,$GNGGA,201654.000,4900.5205,N,00825.4474,E,1,4,6.63,121.3,M,47.9,M,,*49
'A1',21.00,31.00,2.00,19.00,1056.00,$GNGGA,201705.000,4900.5216,N,00825.4410,E,1,4,6.65,121.2,M,47.9,M,,*4B
'A1',20.00,30.00,6.00,15.00,1057.00,$GNGGA,201716.000,4900.5207,N,00825.4360,E,1,4,6.67,121.2,M,47.9,M,,*4B
'A1',20.00,31.00,9.00,13.00,1058.00,$GNGGA,201727.000,4900.5215,N,00825.4486,E,1,4,6.70,121.2,M,47.9,M,,*43
'A1',21.00,34.00,9.00,15.00,1059.00,$GNGGA,201738.000,4900.5228,N,00825.4587,E,1,4,6.72,120.9,M,47.9,M,,*4B
'A1',21.00,33.00,5.00,16.00,1060.00,$GNGGA,201749.000,4900.5235,N,00825.4683,E,1,4,6.74,120.5,M,47.9,M,,*4C
'A1',21.00,30.00,3.00,10.00,1061.00,$GNGGA,201800.000,4900.5217,N,00825.4435,E,1,4,6.77,120.3,M,47.9,M,,*44
SSH-2.0-ssh2js1.4.0
'A1',23.00,33.00,7.00,19.00,1062.00,$GNGGA,201811.000,4900.5201,N,00825.4281,E,1,5,4.45,119.4,M,47.9,M,,*45
'A1',23.00,31.00,9.00,13.00,1063.00,$GNGGA,201822.000,4900.5194,N,00825.4202,E,1,5,4.46,118.0,M,47.9,M,,*47
'A1',20.00,32.00,2.00,18.00,1064.00,$GNGGA,201833.000,4900.5194,N,00825.4326,E,1,5,4.46,118.1,M,47.9,M,,*41
'A1',20.00,34.00,9.00,17.00,1065.00,$GNGGA,201844.000,4900.5193,N,00825.4176,E,1,5,4.46,118.1,M,47.9,M,,*41
'A1',24.00,30.00,7.00,16.00,1066.00,$GNGGA,201855.000,4900.5194,N,00825.4094,E,1,4,4.69,118.3,M,47.9,M,,*45
'A1',23.00,34.00,9.00,19.00,1067.00,$GNGGA,201906.000,4900.5204,N,00825.4060,E,1,4,4.70,118.1,M,47.9,M,,*49
'A1',23.00,34.00,5.00,10.00,1068.00,$GNGGA,201917.000,4900.5205,N,00825.4199,E,1,4,4.70,118.0,M,47.9,M,,*4E
'A1',23.00,33.00,7.00,18.00,1069.00,$GNGGA,201928.000,4900.5202,N,00825.4157,E,1,4,4.71,117.8,M,47.9,M,,*41
'A1',24.00,30.00,7.00,19.00,1070.00,$GNGGA,201939.000,4900.5195,N,00825.4058,E,1,4,4.71,117.8,M,47.9,M,,*42
'A1',24.00,32.00,3.00,18.00,1071.00,$GNGGA,201950.000,4900.5200,N,00825.4237,E,1,4,4.72,117.7,M,47.9,M,,*45
'A1',23.00,32.00,4.00,17.00,1072.00,$GNGGA,202001.000,4900.5224,N,00825.4356,E,1,4,4.73,117.0,M,47.9,M,,*4D
'A1',20.00,33.00,3.00,18.00,1073.00,$GNGGA,202012.000,4900.5248,N,00825.4249,E,1,4,4.74,116.0,M,47.9,M,,*4C
'A1',22.00,33.00,5.00,19.00,1074.00,$GNGGA,202023.000,4900.5250,N,00825.4200,E,1,4,4.74,115.7,M,47.9,M,,*4E
'A1',24.00,30.00,6.00,19.00,1075.00,$GNGGA,202034.000,4900.5228,N,00825.4681,E,1,4,4.75,115.1,M,47.9,M,,*4D
'A1',23.00,31.00,5.00,11.00,1076.00,$GNGGA,202045.000,4900.5216,N,00825.4953,E,1,4,4.76,113.8,M,47.9,M,,*4A
'A1',24.00,33.00,4.00,13.00,1077.00,$GNGGA,202056.000,4900.5206,N,00825.5161,E,1,4,4.77,111.7,M,47.9,M,,*4D
'A1',21.00,30.00,4.00,17.00,1078.00,$GNGGA,202107.000,4900.5206,N,00825.4932,E,1,4,4.77,110.6,M,47.9,M,,*47
'A1',23.00,31.00,2.00,18.00,1079.00,$GNGGA,202118.000,4900.5208,N,00825.4613,E,1,4,4.78,110.9,M,47.9,M,,*4B
'A1',23.00,34.00,8.00,18.00,1080.00,$GNGGA,202129.000,4900.5216,N,00825.4196,E,1,4,4.79,111.6,M,47.9,M,,*43
'A1',22.00,31.00,3.00,15.00,1081.00,$GNGGA,202140.000,4900.5212,N,00825.4038,E,1,4,4.80,110.5,M,47.9,M,,*49
'A1',22.00,32.00,9.00,11.00,1082.00,$GNGGA,202151.000,4900.5216,N,00825.4017,E,1,4,4.80,109.6,M,47.9,M,,*4B
'A1',21.00,31.00,9.00,10.00,1083.00,$GNGGA,202202.000,4900.5223,N,00825.4150,E,1,4,4.81,108.7,M,47.9,M,,*4B
'A1',21.00,34.00,6.00,14.00,1084.00,$GNGGA,202213.000,4900.5204,N,00825.4313,E,1,4,4.82,108.1,M,47.9,M,,*4E
'A1',23.00,34.00,2.00,19.00,1085.00,$GNGGA,202224.000,4900.5191,N,00825.4319,E,1,4,4.82,108.5,M,47.9,M,,*4B
'A1',24.00,34.00,8.00,15.00,1086.00,$GNGGA,202235.000,4900.5174,N,00825.4306,E,1,4,4.83,109.1,M,47.9,M,,*4A
'A1',20.00,34.00,7.00,15.00,1087.00,$GNGGA,202246.000,4900.5185,N,00825.4102,E,1,4,4.84,109.6,M,47.9,M,,*46
'A1',21.00,30.00,9.00,16.00,1088.00,$GNGGA,202257.000,4900.5216,N,00825.4034,E,1,4,4.85,109.4,M,47.9,M,,*48
'A1',23.00,30.00,2.00,19.00,1089.00,$GNGGA,202308.000,4900.5221,N,00825.4108,E,1,4,4.86,108.5,M,47.9,M,,*4A
'A1',23.00,33.00,8.00,15.00,1090.00,$GNGGA,202319.000,4900.5188,N,00825.4138,E,1,4,4.87,107.5,M,47.9,M,,*47
'A1',21.00,31.00,4.00,13.00,1091.00,$GNGGA,202330.000,4900.5209,N,00825.4109,E,1,4,6.59,106.3,M,47.9,M,,*42
'A1',20.00,33.00,3.00,17.00,1092.00,$GNGGA,202341.000,4900.5213,N,00825.4780,E,1,4,4.88,106.0,M,47.9,M,,*45
'A1',20.00,34.00,8.00,15.00,1093.00,$GNGGA,202352.000,4900.5198,N,00825.5095,E,1,4,4.89,105.0,M,47.9,M,,*47
'A1',21.00,34.00,4.00,18.00,1094.00,$GNGGA,202403.000,4900.5210,N,00825.4877,E,1,4,4.90,104.9,M,47.9,M,,*42
'A1',24.00,33.00,5.00,13.00,1095.00,$GNGGA,202414.000,4900.5209,N,00825.4788,E,1,4,4.90,105.0,M,47.9,M,,*4B
'A1',24.00,30.00,4.00,15.00,1096.00,$GNGGA,202425.000,4900.5213,N,00825.4773,E,1,4,4.91,105.1,M,47.9,M,,*46
'A1',21.00,32.00,5.00,10.00,1097.00,$GNGGA,202436.000,4900.5208,N,00825.4709,E,1,4,4.92,105.0,M,47.9,M,,*41
'A1',22.00,32.00,5.00,19.00,1098.00,$GNGGA,202447.000,4900.5237,N,00825.4388,E,1,4,4.93,105.0,M,47.9,M,,*47
'A1',21.00,30.00,7.00,14.00,1099.00,$GNGGA,202458.000,4900.5217,N,00825.4390,E,1,4,4.93,105.0,M,47.9,M,,*42
'A1',20.00,33.00,3.00,16.00,1100.00,$GNGGA,202509.000,4900.5192,N,00825.4652,E,1,4,4.94,104.9,M,47.9,M,,*4D
'A1',24.00,33.00,3.00,19.00,1101.00,$GNGGA,202520.000,4900.5184,N,00825.4342,E,1,4,4.95,104.9,M,47.9,M,,*44
'A1',20.00,32.00,2.00,15.00,1102.00,$GNGGA,202531.000,4900.5206,N,00825.4153,E,1,4,4.96,104.7,M,47.9,M,,*42
'A1',24.00,31.00,3.00,16.00,1103.00,$GNGGA,202542.000,4900.5225,N,00825.3822,E,1,4,4.96,104.3,M,47.9,M,,*4B
'A1',20.00,31.00,4.00,15.00,1104.00,$GNGGA,202553.000,4900.5210,N,00825.4070,E,1,4,4.97,104.1,M,47.9,M,,*46
'A1',24.00,34.00,8.00,16.00,1105.00,$GNGGA,202604.000,4900.5180,N,00825.4068,E,1,4,4.98,104.1,M,47.9,M,,*4B
'A1',23.00,31.00,7.00,19.00,1106.00,$GNGGA,202615.000,4900.5173,N,00825.4170,E,1,4,4.99,104.0,M,47.9,M,,*4F
'A1',23.00,33.00,2.00,18.00,1107.00,$GNGGA,202626.000,4900.5180,N,00825.4171,E,1,4,5.00,103.9,M,47.9,M,,*4D
'A1',24.00,32.00,9.00,11.00,1108.00,$GNGGA,202637.000,4900.5207,N,00825.4269,E,1,4,5.01,103.6,M,47.9,M,,*45
'A1',20.00,34.00,6.00,18.00,1109.00,$GNGGA,202648.000,4900.5195,N,00825.4236,E,1,4,5.01,103.4,M,47.9,M,,*4D
'A1',22.00,34.00,8.00,12.00,1110.00,$GNGGA,202659.000,4900.5196,N,00825.4180,E,1,4,5.02,103.4,M,47.9,M,,*43
'A1',24.00,33.00,7.00,14.00,1111.00,$GNGGA,202710.000,4900.5186,N,00825.4111,E,1,4,5.03,103.5,M,47.9,M,,*46
'A1',23.00,34.00,9.00,14.00,1112.00,$GNGGA,202721.000,4900.5209,N,00825.4249,E,1,4,5.03,103.1,M,47.9,M,,*4A
'A1',20.00,31.00,6.00,15.00,1113.00,$GNGGA,202732.000,4900.5223,N,00825.4603,E,1,4,5.04,102.6,M,47.9,M,,*4B
'A1',21.00,32.00,3.00,16.00,1114.00,$GNGGA,202743.000,4900.5214,N,00825.4645,E,1,4,5.05,102.3,M,47.9,M,,*4F
'A1',22.00,34.00,3.00,10.00,1115.00,$GNGGA,202754.000,4900.5204,N,00825.4479,E,1,4,5.06,102.4,M,47.9,M,,*41
'A1',22.00,30.00,3.00,10.00,1116.00,$GNGGA,202805.000,4900.5189,N,00825.4281,E,1,4,5.07,102.3,M,47.9,M,,*4B
'A1',23.00,32.00,4.00,15.00,1117.00,$GNGGA,202816.000,4900.5177,N,00825.4206,E,1,4,5.07,102.4,M,47.9,M,,*40
'A1',20.00,31.00,4.00,14.00,1118.00,$GNGGA,202827.000,4900.5168,N,00825.4046,E,1,4,5.08,102.7,M,47.9,M,,*46
'A1',23.00,31.00,6.00,12.00,1119.00,$GNGGA,202838.000,4900.5169,N,00825.4203,E,1,4,5.09,102.7,M,47.9,M,,*4B
'A1',24.00,33.00,8.00,13.00,1120.00,$GNGGA,202849.000,4900.5164,N,00825.4288,E,1,4,5.10,102.7,M,47.9,M,,*4B
'A1',24.00,31.00,6.00,10.00,1121.00,$GNGGA,202900.000,4900.5160,N,00825.4283,E,1,4,5.10,102.8,M,47.9,M,,*47
'A1',20.00,32.00,7.00,16.00,1122.00,$GNGGA,202911.000,4900.5164,N,00825.4201,E,1,4,5.11,102.9,M,47.9,M,,*49
'A1',23.00,32.00,2.00,18.00,1123.00,$GNGGA,202922.000,4900.5185,N,00825.4236,E,1,4,5.12,102.9,M,47.9,M,,*41
'A1',23.00,30.00,6.00,18.00,1124.00,$GNGGA,202933.000,4900.5195,N,00825.4316,E,1,4,5.13,102.9,M,47.9,M,,*42
'A1',23.00,33.00,4.00,16.00,1125.00,$GNGGA,202944.000,4900.5181,N,00825.4138,E,1,4,5.14,103.1,M,47.9,M,,*47
'A1',20.00,33.00,4.00,17.00,1126.00,$GNGGA,202955.000,4900.5175,N,00825.3945,E,1,4,5.14,103.3,M,47.9,M,,*4B
'A1',20.00,34.00,2.00,17.00,1127.00,$GNGGA,203006.000,4900.5179,N,00825.3999,E,1,4,5.15,103.3,M,47.9,M,,*49
'A1',22.00,30.00,9.00,17.00,1128.00,$GNGGA,203017.000,4900.5184,N,00825.3954,E,1,4,5.16,103.2,M,47.9,M,,*48
'A1',20.00,33.00,6.00,16.00,1129.00,$GNGGA,203028.000,4900.5204,N,00825.3958,E,1,4,5.17,103.0,M,47.9,M,,*40
'A1',20.00,34.00,9.00,17.00,1130.00,$GNGGA,203039.000,4900.5187,N,00825.3959,E,1,4,5.18,103.2,M,47.9,M,,*44
'A1',22.00,32.00,9.00,12.00,1131.00,$GNGGA,203050.000,4900.5169,N,00825.3950,E,1,4,5.19,103.5,M,47.9,M,,*44
'A1',22.00,30.00,6.00,18.00,1132.00,$GNGGA,203101.000,4900.5174,N,00825.3931,E,1,4,5.19,103.5,M,47.9,M,,*4A
SSH-2.0-ssh2js1.4.0
'A1',24.00,33.00,6.00,16.00,1133.00,$GNGGA,203112.000,4900.5147,N,00825.3870,E,1,4,5.20,104.0,M,47.9,M,,*44
'A1',21.00,32.00,9.00,11.00,1134.00,$GNGGA,203123.000,4900.5157,N,00825.4008,E,1,4,5.21,104.1,M,47.9,M,,*47
'A1',24.00,31.00,2.00,17.00,1135.00,$GNGGA,203134.000,4900.5160,N,00825.4406,E,1,4,5.22,104.2,M,47.9,M,,*4F
'A1',24.00,32.00,8.00,17.00,1136.00,$GNGGA,203145.000,4900.5163,N,00825.4979,E,1,4,5.22,104.7,M,47.9,M,,*4A
'A1',22.00,31.00,5.00,18.00,1137.00,$GNGGA,203156.000,4900.5176,N,00825.4931,E,1,4,5.23,105.1,M,47.9,M,,*46
'A1',20.00,33.00,3.00,17.00,1138.00,$GNGGA,203207.000,4900.5172,N,00825.4671,E,1,4,5.24,105.8,M,47.9,M,,*40
'A1',22.00,34.00,5.00,13.00,1139.00,$GNGGA,203218.000,4900.5160,N,00825.4322,E,1,4,5.25,106.5,M,47.9,M,,*41
'A1',21.00,33.00,9.00,13.00,1140.00,$GNGGA,203229.000,4900.5175,N,00825.4209,E,1,4,5.26,106.5,M,47.9,M,,*4C
'A1',22.00,31.00,2.00,12.00,1141.00,$GNGGA,203240.000,4900.5206,N,00825.4612,E,1,4,5.27,105.8,M,47.9,M,,*45
'A1',21.00,33.00,2.00,13.00,1142.00,$GNGGA,203251.000,4900.5225,N,00825.5224,E,1,4,5.28,105.9,M,47.9,M,,*4A
'A1',23.00,33.00,9.00,14.00,1143.00,$GNGGA,203302.000,4900.5215,N,00825.5293,E,1,4,5.28,105.3,M,47.9,M,,*48
'A1',21.00,32.00,9.00,10.00,1144.00,$GNGGA,203313.000,4900.5218,N,00825.4587,E,1,4,5.29,104.9,M,47.9,M,,*4C
'A1',22.00,34.00,8.00,18.00,1145.00,$GNGGA,203324.000,4900.5205,N,00825.4254,E,1,4,5.29,105.8,M,47.9,M,,*4D
'A1',24.00,31.00,2.00,13.00,1146.00,$GNGGA,203335.000,4900.5189,N,00825.4207,E,1,3,5.41,106.9,M,47.9,M,,*47
'A1',23.00,32.00,6.00,18.00,1147.00,$GNGGA,203346.000,4900.5189,N,00825.4210,E,1,3,5.42,106.9,M,47.9,M,,*46
'A1',23.00,30.00,2.00,19.00,1148.00,$GNGGA,203357.000,4900.5189,N,00825.4207,E,1,3,5.44,106.9,M,47.9,M,,*46
'A1',23.00,30.00,9.00,12.00,1149.00,$GNGGA,203408.000,4900.5188,N,00825.4217,E,1,3,5.45,106.9,M,47.9,M,,*4A
'A1',20.00,31.00,7.00,10.00,1150.00,$GNGGA,203419.000,4900.5217,N,00825.4361,E,1,3,5.46,106.3,M,47.9,M,,*46
'A1',20.00,31.00,2.00,17.00,1151.00,$GNGGA,203430.000,4900.5240,N,00825.4402,E,1,3,5.47,105.8,M,47.9,M,,*44
'A1',23.00,30.00,2.00,10.00,1152.00,$GNGGA,203441.000,4900.5238,N,00825.4359,E,1,3,5.48,105.4,M,47.9,M,,*47
'A1',21.00,31.00,5.00,12.00,1153.00,$GNGGA,203452.000,4900.5219,N,00825.4356,E,1,3,5.50,105.5,M,47.9,M,,*41
'A1',20.00,33.00,8.00,18.00,1154.00,$GNGGA,203503.000,4900.5193,N,00825.4344,E,1,3,5.51,105.8,M,47.9,M,,*4A
'A1',22.00,32.00,8.00,11.00,1155.00,$GNGGA,203514.000,4900.5170,N,00825.4504,E,1,4,5.38,106.2,M,47.9,M,,*42
'A1',20.00,32.00,3.00,19.00,1156.00,$GNGGA,203525.000,4900.5163,N,00825.4506,E,1,4,5.39,106.5,M,47.9,M,,*46
'A1',22.00,32.00,5.00,19.00,1157.00,$GNGGA,203536.000,4900.5198,N,00825.4590,E,1,4,5.39,107.2,M,47.9,M,,*49
'A1',23.00,30.00,7.00,13.00,1158.00,$GNGGA,203547.000,4900.5196,N,00825.4591,E,1,4,5.40,107.9,M,47.9,M,,*45
'A1',21.00,34.00,8.00,16.00,1159.00,$GNGGA,203558.000,4900.5214,N,00825.4496,E,1,4,5.41,108.0,M,47.9,M,,*43
'A1',24.00,34.00,3.00,19.00,1160.00,$GNGGA,203609.000,4900.5205,N,00825.4570,E,1,4,5.42,108.2,M,47.9,M,,*4C
'A1',23.00,32.00,8.00,18.00,1161.00,$GNGGA,203620.000,4900.5179,N,00825.4965,E,1,4,5.42,108.4,M,47.9,M,,*41
'A1',23.00,33.00,7.00,12.00,1162.00,$GNGGA,203631.000,4900.5196,N,00825.4799,E,1,4,5.43,108.8,M,47.9,M,,*40
'A1',23.00,34.00,3.00,14.00,1163.00,$GNGGA,203642.000,4900.5206,N,00825.4536,E,1,4,5.44,109.1,M,47.9,M,,*46
'A1',20.00,34.00,4.00,19.00,1164.00,$GNGGA,203653.000,4900.5219,N,00825.4401,E,1,4,5.45,109.4,M,47.9,M,,*49
'A1',23.00,30.00,9.00,16.00,1165.00,$GNGGA,203704.000,4900.5218,N,00825.4527,E,1,4,5.46,110.0,M,47.9,M,,*41
'A1',23.00,30.00,6.00,16.00,1166.00,$GNGGA,203715.000,4900.5235,N,00825.4614,E,1,4,5.46,110.1,M,47.9,M,,*4C
'A1',23.00,31.00,2.00,18.00,1167.00,$GNGGA,203726.000,4900.5210,N,00825.4717,E,1,4,5.47,110.1,M,47.9,M,,*48
'A1',24.00,32.00,7.00,14.00,1168.00,$GNGGA,203737.000,4900.5201,N,00825.4125,E,1,4,5.48,110.1,M,47.9,M,,*40
'A1',20.00,30.00,8.00,12.00,1169.00,$GNGGA,203748.000,4900.5223,N,00825.4015,E,1,4,5.49,110.0,M,47.9,M,,*4A
'A1',24.00,33.00,5.00,10.00,1170.00,$GNGGA,203759.000,4900.5222,N,00825.4083,E,1,4,5.49,109.8,M,47.9,M,,*44
'A1',20.00,32.00,5.00,11.00,1171.00,$GNGGA,203810.000,4900.5196,N,00825.4224,E,1,4,5.50,109.6,M,47.9,M,,*43
'A1',20.00,33.00,2.00,13.00,1172.00,$GNGGA,203821.000,4900.5173,N,00825.4297,E,0,3,,109.6,M,47.9,M,,*5A
'A1',24.00,32.00,4.00,13.00,1173.00,$GNGGA,203832.000,4900.5163,N,00825.4331,E,0,3,,109.9,M,47.9,M,,*5B
'A1',24.00,34.00,5.00,10.00,1174.00,$GNGGA,203843.000,4900.5170,N,00825.4242,E,1,3,55.31,110.0,M,47.9,M,,*76
'A1',21.00,32.00,9.00,18.00,1175.00,$GNGGA,203854.000,4900.5166,N,00825.4245,E,6,2,99.99,109.7,M,47.9,M,,*7B
'A1',20.00,34.00,5.00,14.00,1176.00,$GNGGA,203905.000,4900.5155,N,00825.4241,E,1,3,58.50,109.7,M,47.9,M,,*74
'A1',21.00,30.00,2.00,15.00,1177.00,$GNGGA,203916.000,4900.5165,N,00825.4130,E,0,2,,109.7,M,47.9,M,,*56
'A1',24.00,30.00,7.00,16.00,1178.00,$GNGGA,203927.000,4900.5168,N,00825.4099,E,0,2,,109.7,M,47.9,M,,*5B
'A1',23.00,30.00,6.00,12.00,1179.00,$GNGGA,203938.000,4900.5168,N,00825.4098,E,0,2,,109.6,M,47.9,M,,*55
'A1',22.00,33.00,3.00,19.00,1180.00,$GNGGA,203949.000,4900.5167,N,00825.4099,E,0,2,,109.6,M,47.9,M,,*5D
'A1',20.00,33.00,8.00,10.00,1181.00,$GNGGA,204000.000,4900.5167,N,00825.4098,E,0,2,,109.6,M,47.9,M,,*5F
'A1',21.00,30.00,6.00,17.00,1182.00,$GNGGA,204011.000,4900.5168,N,00825.4098,E,0,2,,109.6,M,47.9,M,,*50
'A1',21.00,33.00,2.00,15.00,1183.00,$GNGGA,204022.000,4900.5167,N,00825.4098,E,1,3,6.16,109.6,M,47.9,M,,*40
'A1',23.00,32.00,3.00,11.00,1184.00,$GNGGA,204033.000,4900.5168,N,00825.4094,E,1,3,6.16,109.6,M,47.9,M,,*43
'A1',20.00,31.00,6.00,12.00,1185.00,$GNGGA,204044.000,4900.5163,N,00825.4102,E,1,3,6.16,109.6,M,47.9,M,,*46
'A1',22.00,33.00,8.00,13.00,1186.00,$GNGGA,204055.000,4900.5164,N,00825.4131,E,1,3,6.16,109.8,M,47.9,M,,*4F
'A1',24.00,34.00,3.00,15.00,1187.00,$GNGGA,204106.000,4900.5239,N,00825.4450,E,1,3,6.16,109.9,M,47.9,M,,*40
'A1',22.00,31.00,4.00,15.00,1188.00,$GNGGA,204117.000,4900.5320,N,00825.5281,E,1,3,6.16,110.2,M,47.9,M,,*41
'A1',23.00,33.00,3.00,18.00,1189.00,$GNGGA,204128.000,4900.5283,N,00825.5782,E,1,3,6.16,110.5,M,47.9,M,,*44
'A1',23.00,30.00,3.00,19.00,1190.00,$GNGGA,204139.000,4900.5220,N,00825.5730,E,1,3,6.16,111.0,M,47.9,M,,*40
'A1',23.00,31.00,5.00,14.00,1191.00,$GNGGA,204150.000,4900.5202,N,00825.5285,E,1,3,6.16,111.5,M,47.9,M,,*41
'A1',21.00,34.00,9.00,14.00,1192.00,$GNGGA,204201.000,4900.5139,N,00825.5117,E,1,3,6.16,112.0,M,47.9,M,,*43
'A1',24.00,32.00,3.00,12.00,1193.00,$GNGGA,204212.000,4900.5060,N,00825.4813,E,1,3,6.16,113.0,M,47.9,M,,*41
'A1',23.00,33.00,3.00,18.00,1194.00,$GNGGA,204223.000,4900.4996,N,00825.4020,E,1,3,6.17,114.0,M,47.9,M,,*4C
'A1',23.00,33.00,6.00,11.00,1195.00,$GNGGA,204234.000,4900.5252,N,00825.4130,E,1,3,6.17,115.0,M,47.9,M,,*49
'A1',22.00,34.00,9.00,17.00,1196.00,$GNGGA,204245.000,4900.5276,N,00825.3862,E,1,3,6.16,116.0,M,47.9,M,,*42
'A1',21.00,30.00,2.00,10.00,1197.00,$GNGGA,204256.000,4900.5290,N,00825.3584,E,6,3,6.16,117.1,M,47.9,M,,*4A
'A1',20.00,34.00,4.00,13.00,1198.00,$GNGGA,204307.000,4900.5234,N,00825.3704,E,1,3,6.16,118.1,M,47.9,M,,*43
'A1',24.00,31.00,6.00,10.00,1199.00,$GNGGA,204318.000,4900.5282,N,00825.3864,E,1,3,6.17,118.8,M,47.9,M,,*41
'A1',23.00,30.00,6.00,18.00,1200.00,$GNGGA,204329.000,4900.5418,N,00825.3974,E,1,3,6.17,118.4,M,47.9,M,,*4A
'A1',20.00,30.00,9.00,11.00,1201.00,$GNGGA,204340.000,4900.5515,N,00825.3969,E,1,3,6.17,118.1,M,47.9,M,,*40
'A1',23.00,31.00,9.00,15.00,1202.00,$GNGGA,204351.000,4900.5412,N,00825.3661,E,0,2,,117.8,M,47.9,M,,*59
'A1',20.00,31.00,9.00,17.00,1203.00,$GNGGA,204402.000,4900.5317,N,00825.3509,E,0,2,,118.0,M,47.9,M,,*50
'A1',20.00,30.00,3.00,18.00,1204.00,$GNGGA,204413.000,4900.5315,N,00825.3506,E,0,2,,117.8,M,47.9,M,,*5A
'A1',24.00,34.00,8.00,11.00,1205.00,$GNGGA,204424.000,4900.5314,N,00825.3506,E,0,2,,117.8,M,47.9,M,,*5F
'A1',20.00,30.00,7.00,15.00,1206.00,$GNGGA,204435.000,4900.5314,N,00825.3508,E,0,2,,117.8,M,47.9,M,,*51
'A1',24.00,32.00,9.00,10.00,1207.00,$GNGGA,204446.000,4900.5314,N,00825.3507,E,0,2,,117.9,M,47.9,M,,*5B
'A1',21.00,33.00,8.00,14.00,1208.00,$GNGGA,204457.000,4900.5314,N,00825.3508,E,0,2,,117.8,M,47.9,M,,*55
'A1',21.00,33.00,4.00,16.00,1209.00,$GNGGA,204508.000,4900.5314,N,00825.3507,E,1,3,6.17,117.9,M,47.9,M,,*4E
'A1',23.00,33.00,7.00,13.00,1210.00,$GNGGA,204519.000,4900.5314,N,00825.3510,E,1,3,6.17,117.8,M,47.9,M,,*49
'A1',22.00,32.00,9.00,16.00,1211.00,$GNGGA,204530.000,4900.5314,N,00825.3511,E,6,3,6.17,117.8,M,47.9,M,,*44
'A1',22.00,32.00,7.00,12.00,1212.00,$GNGGA,204541.000,4900.5307,N,00825.3513,E,1,3,6.17,117.7,M,47.9,M,,*4A
'A1',22.00,34.00,6.00,13.00,1213.00,$GNGGA,204552.000,4900.5243,N,00825.3725,E,1,3,6.17,117.7,M,47.9,M,,*4E
'A1',22.00,34.00,6.00,18.00,1214.00,$GNGGA,204603.000,4900.5174,N,00825.4171,E,1,3,6.18,117.7,M,47.9,M,,*41
'A1',21.00,30.00,3.00,10.00,1215.00,$GNGGA,204614.000,4900.5197,N,00825.4418,E,1,3,6.18,117.7,M,47.9,M,,*40
'A1',23.00,30.00,2.00,19.00,1216.00,$GNGGA,204625.000,4900.5230,N,00825.4438,E,1,3,6.18,117.7,M,47.9,M,,*4E
'A1',20.00,32.00,2.00,12.00,1217.00,$GNGGA,204636.000,4900.5232,N,00825.4331,E,1,3,6.18,117.8,M,47.9,M,,*4F
'A1',21.00,33.00,5.00,13.00,1218.00,$GNGGA,204647.000,4900.5230,N,00825.4383,E,0,0,,118.0,M,47.9,M,,*56
'A1',24.00,33.00,4.00,10.00,1219.00,$GNGGA,204658.000,4900.5231,N,00825.4399,E,0,0,,109.9,M,47.9,M,,*5B
'A1',24.00,31.00,5.00,12.00,1220.00,$GNGGA,204709.000,4900.5231,N,00825.4399,E,0,0,,109.9,M,47.9,M,,*5E
'A1',23.00,32.00,2.00,19.00,1221.00,$GNGGA,204720.000,4900.5231,N,00825.4399,E,0,0,,109.9,M,47.9,M,,*55
'A1',21.00,33.00,3.00,13.00,1222.00,$GNGGA,204731.000,4900.5231,N,00825.4399,E,0,0,,109.9,M,47.9,M,,*55
'A1',22.00,30.00,5.00,16.00,1223.00,$GNGGA,204742.000,4900.5231,N,00825.4399,E,0,0,,109.9,M,47.9,M,,*51
'A1',22.00,31.00,3.00,17.00,1224.00,$GNGGA,204753.000,4900.5231,N,00825.4399,E,0,0,,109.9,M,47.9,M,,*51
'A1',21.00,33.00,2.00,12.00,1225.00,$GNGGA,204804.000,4900.5231,N,00825.4399,E,0,0,,109.9,M,47.9,M,,*5C
'A1',22.00,33.00,3.00,14.00,1226.00,$GNGGA,204815.000,4900.5231,N,00825.4399,E,0,0,,109.9,M,47.9,M,,*5C
'A1',24.00,30.00,7.00,18.00,1227.00,$GNGGA,204826.000,4900.5231,N,00825.4399,E,0,0,,109.9,M,47.9,M,,*5C
'A1',22.00,34.00,5.00,14.00,1228.00,$GNGGA,204837.000,4900.5231,N,00825.4399,E,0,0,,109.9,M,47.9,M,,*5C
'A1',22.00,31.00,8.00,18.00,1229.00,$GNGGA,204848.000,4900.5231,N,00825.4399,E,0,0,,109.9,M,47.9,M,,*54
'A1',20.00,32.00,7.00,12.00,1230.00,$GNGGA,204859.000,4900.5206,N,00825.4340,E,0,0,,109.9,M,47.9,M,,*54
'A1',21.00,33.00,6.00,13.00,1231.00,$GNGGA,204910.000,4900.5232,N,00825.4824,E,1,3,6.18,116.8,M,47.9,M,,*4A
'A1',23.00,31.00,2.00,14.00,1232.00,$GNGGA,204921.000,4900.5236,N,00825.4875,E,1,3,6.18,118.0,M,47.9,M,,*4E
'A1',22.00,33.00,5.00,17.00,1233.00,$GNGGA,204933.000,4900.5184,N,00825.4662,E,1,3,6.19,118.1,M,47.9,M,,*4F
'A1',20.00,31.00,8.00,19.00,1234.00,$GNGGA,204944.000,4900.5164,N,00825.4530,E,1,3,6.19,118.1,M,47.9,M,,*45
'A1',21.00,31.00,9.00,18.00,1235.00,$GNGGA,204955.000,4900.5224,N,00825.4643,E,1,3,6.19,118.1,M,47.9,M,,*45
'A1',24.00,31.00,5.00,11.00,1236.00,$GNGGA,205006.000,4900.5236,N,00825.4533,E,1,3,6.19,118.1,M,47.9,M,,*4C
'A1',21.00,31.00,2.00,15.00,1237.00,$GNGGA,205017.000,4900.5261,N,00825.4567,E,1,3,6.19,118.1,M,47.9,M,,*4F
'A1',23.00,31.00,2.00,18.00,1238.00,$GNGGA,205028.000,4900.5265,N,00825.4608,E,1,3,6.19,118.1,M,47.9,M,,*4D
'A1',24.00,34.00,7.00,15.00,1239.00,$GNGGA,205039.000,4900.5245,N,00825.4593,E,1,3,6.19,118.1,M,47.9,M,,*4E
'A1',21.00,31.00,2.00,19.00,1240.00,$GNGGA,205050.000,4900.5203,N,00825.4523,E,1,3,6.19,118.0,M,47.9,M,,*49
'A1',24.00,34.00,7.00,10.00,1241.00,$GNGGA,205101.000,4900.5195,N,00825.4567,E,1,3,6.19,118.0,M,47.9,M,,*40
'A1',24.00,30.00,9.00,10.00,1242.00,$GNGGA,205112.000,4900.5205,N,00825.4477,E,1,3,6.19,118.0,M,47.9,M,,*48
'A1',20.00,31.00,4.00,10.00,1243.00,$GNGGA,205123.000,4900.5222,N,00825.4528,E,1,3,6.19,117.9,M,47.9,M,,*42
'A1',20.00,34.00,3.00,19.00,1244.00,$GNGGA,205134.000,4900.5243,N,00825.4680,E,1,3,6.19,117.9,M,47.9,M,,*42
'A1',21.00,32.00,9.00,10.00,1245.00,$GNGGA,205145.000,4900.5247,N,00825.4554,E,1,3,6.19,118.0,M,47.9,M,,*4C
'A1',22.00,30.00,7.00,16.00,1246.00,$GNGGA,205156.000,4900.5243,N,00825.4469,E,1,3,6.19,118.0,M,47.9,M,,*45
'A1',22.00,33.00,8.00,10.00,1247.00,$GNGGA,205207.000,4900.5244,N,00825.4526,E,1,3,6.19,118.1,M,47.9,M,,*4E
'A1',23.00,32.00,6.00,15.00,1248.00,$GNGGA,205218.000,4900.5248,N,00825.4631,E,1,3,6.19,118.2,M,47.9,M,,*4A
'A1',21.00,33.00,9.00,10.00,1249.00,$GNGGA,205229.000,4900.5204,N,00825.4511,E,1,3,6.19,118.3,M,47.9,M,,*40
'A1',23.00,32.00,5.00,11.00,1250.00,$GNGGA,205240.000,4900.5213,N,00825.4314,E,6,3,6.19,118.3,M,47.9,M,,*4D
'A1',23.00,34.00,3.00,18.00,1251.00,$GNGGA,205251.000,4900.5222,N,00825.4352,E,1,3,6.19,118.4,M,47.9,M,,*4D
'A1',22.00,32.00,8.00,13.00,1252.00,$GNGGA,205303.000,4900.5237,N,00825.4308,E,6,3,6.19,118.5,M,47.9,M,,*46
'A1',24.00,32.00,9.00,12.00,1253.00,$GNGGA,205315.000,4900.5237,N,00825.4432,E,1,3,6.19,118.6,M,47.9,M,,*4B
'A1',23.00,32.00,3.00,11.00,1254.00,$GNGGA,205326.000,4900.5235,N,00825.4440,E,1,3,6.19,118.6,M,47.9,M,,*4C
'A1',21.00,33.00,7.00,12.00,1255.00,$GNGGA,205337.000,4900.5216,N,00825.4694,E,1,3,6.19,118.7,M,47.9,M,,*47
'A1',20.00,32.00,5.00,13.00,1256.00,$GNGGA,205348.000,4900.5251,N,00825.4640,E,1,3,6.19,118.8,M,47.9,M,,*4A
'A1',20.00,31.00,9.00,16.00,1257.00,$GNGGA,205359.000,4900.5233,N,00825.4465,E,1,3,6.20,118.9,M,47.9,M,,*40
'A1',21.00,33.00,4.00,15.00,1258.00,$GNGGA,205410.000,4900.5229,N,00825.4280,E,1,3,6.19,118.9,M,47.9,M,,*46
'A1',22.00,33.00,7.00,14.00,1259.00,$GNGGA,205421.000,4900.5215,N,00825.4285,E,1,3,6.20,118.9,M,47.9,M,,*44
'A1',23.00,32.00,9.00,10.00,1260.00,$GNGGA,205432.000,4900.5211,N,00825.4215,E,1,3,6.19,118.9,M,47.9,M,,*41
'A1',22.00,31.00,4.00,17.00,1261.00,$GNGGA,205443.000,4900.5235,N,00825.4064,E,1,3,6.20,119.0,M,47.9,M,,*47
'A1',21.00,30.00,8.00,13.00,1262.00,$GNGGA,205454.000,4900.5243,N,00825.3881,E,1,3,6.20,119.0,M,47.9,M,,*44
'A1',22.00,33.00,2.00,16.00,1263.00,$GNGGA,205505.000,4900.5280,N,00825.3525,E,1,3,6.20,119.0,M,47.9,M,,*4D
'A1',22.00,32.00,8.00,14.00,1264.00,$GNGGA,205516.000,4900.5220,N,00825.4215,E,0,0,,109.7,M,47.9,M,,*58
'A1',21.00,32.00,3.00,14.00,1265.00,$GNGGA,205527.000,4900.5221,N,00825.4198,E,0,0,,109.7,M,47.9,M,,*5D
'A1',24.00,32.00,4.00,10.00,1266.00,$GNGGA,205538.000,4900.5221,N,00825.4198,E,0,0,,109.7,M,47.9,M,,*53
'A1',22.00,30.00,7.00,10.00,1267.00,$GNGGA,205549.000,4900.5221,N,00825.4198,E,0,0,,109.7,M,47.9,M,,*55
'A1',20.00,34.00,7.00,12.00,1268.00,$GNGGA,205600.000,4900.5221,N,00825.4198,E,0,0,,109.7,M,47.9,M,,*5B
'A1',22.00,30.00,7.00,18.00,1269.00,$GNGGA,205611.000,4900.5221,N,00825.4198,E,0,0,,109.7,M,47.9,M,,*5B
'A1',20.00,33.00,8.00,15.00,1270.00,$GNGGA,205622.000,4900.5221,N,00825.4198,E,0,0,,109.7,M,47.9,M,,*5B
'A1',24.00,32.00,7.00,11.00,1271.00,$GNGGA,205633.000,4900.5221,N,00825.4198,E,0,0,,109.7,M,47.9,M,,*5B
'A1',24.00,31.00,9.00,18.00,1272.00,$GNGGA,205644.000,4900.5221,N,00825.4198,E,0,0,,109.7,M,47.9,M,,*5B
'A1',21.00,30.00,6.00,18.00,1273.00,$GNGGA,205655.000,4900.5221,N,00825.4198,E,0,0,,109.7,M,47.9,M,,*5B
'A1',23.00,31.00,5.00,13.00,1274.00,$GNGGA,205706.000,4900.5221,N,00825.4198,E,0,0,,109.7,M,47.9,M,,*5C
'A1',24.00,30.00,6.00,17.00,1275.00,$GNGGA,205717.000,4900.5221,N,00825.4198,E,0,0,,109.7,M,47.9,M,,*5C
'A1',20.00,31.00,2.00,11.00,1276.00,$GNGGA,205728.000,4900.5221,N,00825.4198,E,0,0,,109.7,M,47.9,M,,*50
'A1',22.00,33.00,3.00,15.00,1277.00,$GNGGA,205739.000,4900.5221,N,00825.4198,E,0,0,,109.7,M,47.9,M,,*50
'A1',23.00,31.00,3.00,16.00,1278.00,$GNGGA,205750.000,4900.5221,N,00825.4198,E,0,0,,109.7,M,47.9,M,,*5F
'A1',23.00,31.00,8.00,14.00,1279.00,$GNGGA,205801.000,4900.5221,N,00825.4198,E,0,0,,109.7,M,47.9,M,,*54
'A1',22.00,31.00,8.00,16.00,1280.00,$GNGGA,205812.000,4900.5221,N,00825.4198,E,0,0,,109.7,M,47.9,M,,*56
'A1',23.00,31.00,8.00,19.00,1281.00,$GNGGA,205823.000,4900.5221,N,00825.4198,E,0,0,,109.7,M,47.9,M,,*54
'A1',24.00,30.00,3.00,14.00,1282.00,$GNGGA,205834.000,4900.5251,N,00825.4352,E,0,3,,118.0,M,47.9,M,,*55
'A1',23.00,33.00,2.00,19.00,1283.00,$GNGGA,205845.000,4900.5249,N,00825.4734,E,1,3,6.21,118.1,M,47.9,M,,*45
'A1',23.00,34.00,8.00,11.00,1284.00,$GNGGA,205856.000,4900.5280,N,00825.4696,E,1,3,6.21,118.2,M,47.9,M,,*48
'A1',20.00,34.00,2.00,10.00,1285.00,$GNGGA,205907.000,4900.5277,N,00825.4724,E,1,3,6.21,118.3,M,47.9,M,,*4C
'A1',23.00,31.00,5.00,18.00,1286.00,$GNGGA,205918.000,4900.5114,N,00825.4285,E,1,3,6.21,118.3,M,47.9,M,,*4A
'A1',23.00,32.00,8.00,12.00,1287.00,$GNGGA,205929.000,4900.5129,N,00825.4006,E,1,3,6.21,118.2,M,47.9,M,,*4E
'A1',24.00,31.00,3.00,11.00,1288.00,$GNGGA,205940.000,4900.5295,N,00825.4308,E,1,3,6.20,118.3,M,47.9,M,,*48
'A1',20.00,30.00,2.00,19.00,1289.00,$GNGGA,205951.000,4900.5375,N,00825.4612,E,6,2,99.99,118.3,M,47.9,M,,*7B
'A1',20.00,33.00,4.00,17.00,1290.00,$GNGGA,210002.000,4900.5357,N,00825.4682,E,1,3,6.20,118.3,M,47.9,M,,*4B
'A1',23.00,31.00,4.00,17.00,1291.00,$GNGGA,210013.000,4900.5543,N,00825.5105,E,6,2,99.99,118.3,M,47.9,M,,*73
'A1',23.00,34.00,4.00,10.00,1292.00,$GNGGA,210025.000,4900.5627,N,00825.5387,E,0,2,,118.3,M,47.9,M,,*57
'A1',21.00,33.00,4.00,17.00,1293.00,$GNGGA,210036.000,4900.5640,N,00825.5508,E,0,2,,118.3,M,47.9,M,,*55
'A1',21.00,32.00,3.00,18.00,1294.00,$GNGGA,210047.000,4900.5662,N,00825.5544,E,0,2,,118.3,M,47.9,M,,*5B
'A1',20.00,31.00,3.00,19.00,1295.00,$GNGGA,210058.000,4900.5655,N,00825.5572,E,0,2,,118.3,M,47.9,M,,*54
'A1',24.00,33.00,5.00,15.00,1296.00,$GNGGA,210109.000,4900.5666,N,00825.5570,E,0,2,,118.3,M,47.9,M,,*53
'A1',20.00,31.00,8.00,15.00,1297.00,$GNGGA,210120.000,4900.5671,N,00825.5533,E,0,2,,118.2,M,47.9,M,,*58
'A1',24.00,33.00,3.00,19.00,1298.00,$GNGGA,210131.000,4900.5656,N,00825.5548,E,0,2,,118.2,M,47.9,M,,*51
'A1',23.00,34.00,3.00,15.00,1299.00,$GNGGA,210142.000,4900.5682,N,00825.5519,E,0,2,,118.2,M,47.9,M,,*58
'A1',23.00,30.00,4.00,19.00,1300.00,$GNGGA,210153.000,4900.5699,N,00825.5456,E,0,2,,118.2,M,47.9,M,,*58
'A1',22.00,33.00,3.00,14.00,1301.00,$GNGGA,210204.000,4900.5691,N,00825.5474,E,0,2,,118.2,M,47.9,M,,*51
'A1',20.00,34.00,4.00,15.00,1302.00,$GNGGA,210215.000,4900.5699,N,00825.5493,E,0,2,,118.2,M,47.9,M,,*50
'A1',20.00,31.00,6.00,17.00,1303.00,$GNGGA,210226.000,4900.5712,N,00825.5517,E,0,2,,118.1,M,47.9,M,,*5C
'A1',22.00,33.00,9.00,19.00,1304.00,$GNGGA,210237.000,4900.5711,N,00825.5510,E,0,2,,118.1,M,47.9,M,,*58
'A1',24.00,33.00,9.00,11.00,1305.00,$GNGGA,210248.000,4900.5719,N,00825.5582,E,0,2,,118.1,M,47.9,M,,*53
'A1',24.00,32.00,4.00,17.00,1306.00,$GNGGA,210259.000,4900.5738,N,00825.5617,E,0,0,,118.1,M,47.9,M,,*5D
'A1',22.00,32.00,6.00,11.00,1307.00,$GNGGA,210310.000,4900.5770,N,00825.5601,E,0,0,,102.1,M,47.9,M,,*51
'A1',24.00,30.00,6.00,11.00,1308.00,$GNGGA,210321.000,4900.5770,N,00825.5601,E,0,0,,102.1,M,47.9,M,,*53
'A1',21.00,34.00,2.00,11.00,1309.00,$GNGGA,210332.000,4900.5770,N,00825.5601,E,0,0,,102.1,M,47.9,M,,*51
'A1',20.00,34.00,6.00,12.00,1310.00,$GNGGA,210343.000,4900.5770,N,00825.5601,E,0,0,,102.1,M,47.9,M,,*57
'A1',24.00,31.00,2.00,10.00,1311.00,$GNGGA,210354.000,4900.5770,N,00825.5601,E,0,0,,102.1,M,47.9,M,,*51
'A1',23.00,33.00,6.00,16.00,1312.00,$GNGGA,210405.000,4900.5770,N,00825.5601,E,0,0,,102.1,M,47.9,M,,*52
'A1',20.00,33.00,8.00,15.00,1313.00,$GNGGA,210416.000,4900.5770,N,00825.5601,E,0,0,,102.1,M,47.9,M,,*50
'A1',24.00,31.00,7.00,15.00,1314.00,$GNGGA,210427.000,4900.5770,N,00825.5601,E,0,0,,102.1,M,47.9,M,,*52
'A1',23.00,34.00,7.00,17.00,1315.00,$GNGGA,210438.000,4900.5770,N,00825.5601,E,0,0,,102.1,M,47.9,M,,*5C
'A1',20.00,30.00,3.00,17.00,1316.00,$GNGGA,210449.000,4900.5770,N,00825.5601,E,0,0,,102.1,M,47.9,M,,*5A
'A1',21.00,30.00,5.00,10.00,1317.00,$GNGGA,210500.000,4900.5770,N,00825.5601,E,0,0,,102.1,M,47.9,M,,*56
'A1',24.00,31.00,5.00,15.00,1318.00,$GNGGA,210511.000,4900.5770,N,00825.5601,E,0,0,,102.1,M,47.9,M,,*56
'A1',24.00,33.00,8.00,14.00,1319.00,$GNGGA,210522.000,4900.5770,N,00825.5601,E,0,0,,102.1,M,47.9,M,,*56
'A1',24.00,33.00,2.00,16.00,1320.00,$GNGGA,210533.000,4900.5770,N,00825.5601,E,0,0,,102.1,M,47.9,M,,*56
'A1',23.00,30.00,9.00,15.00,1321.00,$GNGGA,210544.000,4900.5770,N,00825.5601,E,0,0,,102.1,M,47.9,M,,*56
'A1',22.00,31.00,9.00,15.00,1322.00,$GNGGA,210555.000,4900.5770,N,00825.5601,E,0,0,,102.1,M,47.9,M,,*56
'A1',23.00,32.00,4.00,13.00,1323.00,$GNGGA,210606.000,4900.5770,N,00825.5601,E,0,0,,102.1,M,47.9,M,,*53
'A1',24.00,32.00,2.00,16.00,1324.00,$GNGGA,210617.000,4900.5770,N,00825.5601,E,0,0,,102.1,M,47.9,M,,*53
'A1',24.00,30.00,6.00,16.00,1325.00,$GNGGA,210628.000,4900.5770,N,00825.5601,E,0,0,,102.1,M,47.9,M,,*5F
'A1',22.00,31.00,7.00,18.00,1326.00,$GNGGA,210639.000,4900.5770,N,00825.5601,E,0,0,,102.1,M,47.9,M,,*5F
'A1',22.00,34.00,5.00,11.00,1327.00,$GNGGA,210650.000,4900.5770,N,00825.5601,E,0,0,,102.1,M,47.9,M,,*50
'A1',22.00,34.00,6.00,18.00,1328.00,$GNGGA,210701.000,4900.5770,N,00825.5601,E,0,0,,102.1,M,47.9,M,,*55
'A1',24.00,30.00,8.00,10.00,1329.00,$GNGGA,210712.000,4900.5770,N,00825.5601,E,0,0,,102.1,M,47.9,M,,*57
'A1',23.00,32.00,2.00,14.00,1330.00,$GNGGA,210723.000,4900.5770,N,00825.5601,E,0,0,,102.1,M,47.9,M,,*55
'A1',24.00,32.00,7.00,12.00,1331.00,$GNGGA,210734.000,4900.5770,N,00825.5601,E,0,0,,102.1,M,47.9,M,,*53
'A1',21.00,31.00,5.00,19.00,1332.00,$GNGGA,210745.000,4900.5770,N,00825.5601,E,0,0,,102.1,M,47.9,M,,*55
'A1',20.00,33.00,6.00,18.00,1333.00,$GNGGA,210756.000,4900.5770,N,00825.5601,E,0,0,,102.1,M,47.9,M,,*57
'A1',21.00,34.00,7.00,15.00,1334.00,$GNGGA,210807.000,4900.5770,N,00825.5601,E,0,0,,102.1,M,47.9,M,,*5C
'A1',24.00,33.00,5.00,10.00,1335.00,$GNGGA,210818.000,4900.5770,N,00825.5601,E,0,0,,102.1,M,47.9,M,,*52
'A1',20.00,32.00,5.00,12.00,1336.00,$GNGGA,210829.000,4900.5770,N,00825.5601,E,0,0,,102.1,M,47.9,M,,*50
'A1',22.00,33.00,4.00,19.00,1337.00,$GNGGA,210840.000,4900.5770,N,00825.5601,E,0,0,,102.1,M,47.9,M,,*5F
'A1',20.00,31.00,6.00,17.00,1338.00,$GNGGA,210851.000,4900.5770,N,00825.5601,E,0,0,,102.1,M,47.9,M,,*5F
'A1',24.00,33.00,8.00,10.00,1339.00,$GNGGA,210902.000,4900.5770,N,00825.5601,E,0,0,,102.1,M,47.9,M,,*58
'A1',20.00,32.00,2.00,12.00,1340.00,$GNGGA,210913.000,4900.5770,N,00825.5601,E,0,0,,102.1,M,47.9,M,,*58
'A1',21.00,30.00,8.00,16.00,1341.00,$GNGGA,210924.000,4900.5770,N,00825.5601,E,0,0,,102.1,M,47.9,M,,*5C
'A1',23.00,33.00,4.00,11.00,1342.00,$GNGGA,210935.000,4900.5770,N,00825.5601,E,0,0,,102.1,M,47.9,M,,*5C
'A1',22.00,34.00,5.00,19.00,1343.00,$GNGGA,210946.000,4900.5770,N,00825.5601,E,0,0,,102.1,M,47.9,M,,*58
'A1',24.00,31.00,6.00,13.00,1344.00,$GNGGA,210957.000,4900.5770,N,00825.5601,E,0,0,,102.1,M,47.9,M,,*58
'A1',20.00,32.00,5.00,11.00,1345.00,$GNGGA,211008.000,4900.5770,N,00825.5601,E,0,0,,102.1,M,47.9,M,,*5A
'A1',22.00,33.00,4.00,18.00,1346.00,$GNGGA,211019.000,4900.5770,N,00825.5601,E,0,0,,102.1,M,47.9,M,,*5A
'A1',22.00,33.00,2.00,16.00,1347.00,$GNGGA,211030.000,4900.5770,N,00825.5601,E,0,0,,102.1,M,47.9,M,,*51
'A1',21.00,32.00,9.00,15.00,1348.00,$GNGGA,211041.000,4900.5770,N,00825.5601,E,0,0,,102.1,M,47.9,M,,*57
'A1',23.00,32.00,2.00,19.00,1349.00,$GNGGA,211052.000,4900.5770,N,00825.5601,E,0,0,,102.1,M,47.9,M,,*55
'A1',24.00,34.00,8.00,15.00,1350.00,$GNGGA,211103.000,4900.5770,N,00825.5601,E,0,0,,102.1,M,47.9,M,,*50
'A1',23.00,34.00,8.00,12.00,1351.00,$GNGGA,211114.000,4900.5770,N,00825.5601,E,0,0,,102.1,M,47.9,M,,*56
'A1',20.00,30.00,8.00,12.00,1352.00,$GNGGA,211125.000,4900.5770,N,00825.5601,E,0,0,,102.1,M,47.9,M,,*54
'A1',20.00,33.00,9.00,12.00,1353.00,$GNGGA,211136.000,4900.5770,N,00825.5601,E,0,0,,102.1,M,47.9,M,,*56
'A1',20.00,33.00,5.00,13.00,1354.00,$GNGGA,211147.000,4900.5770,N,00825.5601,E,0,0,,102.1,M,47.9,M,,*50
'A1',22.00,34.00,5.00,15.00,1355.00,$GNGGA,211158.000,4900.5770,N,00825.5601,E,0,0,,102.1,M,47.9,M,,*5E
'A1',20.00,30.00,3.00,19.00,1356.00,$GNGGA,211209.000,4900.5770,N,00825.5601,E,0,0,,102.1,M,47.9,M,,*59
'A1',24.00,31.00,7.00,14.00,1357.00,$GNGGA,211220.000,4900.5770,N,00825.5601,E,0,0,,102.1,M,47.9,M,,*52
'A1',24.00,33.00,8.00,18.00,1358.00,$GNGGA,211231.000,4900.5770,N,00825.5601,E,0,0,,102.1,M,47.9,M,,*52
'A1',20.00,33.00,7.00,16.00,1359.00,$GNGGA,211242.000,4900.5770,N,00825.5601,E,0,0,,102.1,M,47.9,M,,*56
'A1',21.00,31.00,8.00,19.00,1360.00,$GNGGA,211253.000,4900.5770,N,00825.5601,E,0,0,,102.1,M,47.9,M,,*56
'A1',21.00,31.00,6.00,19.00,1361.00,$GNGGA,211304.000,4900.5770,N,00825.5601,E,0,0,,102.1,M,47.9,M,,*55
'A1',23.00,32.00,9.00,11.00,1362.00,$GNGGA,211315.000,4900.5770,N,00825.5601,E,0,0,,102.1,M,47.9,M,,*55
'A1',22.00,31.00,3.00,11.00,1363.00,$GNGGA,211326.000,4900.5770,N,00825.5601,E,0,0,,102.1,M,47.9,M,,*55
'A1',23.00,32.00,5.00,15.00,1364.00,$GNGGA,211337.000,4900.5770,N,00825.5601,E,0,0,,102.1,M,47.9,M,,*55
'A1',20.00,32.00,2.00,13.00,1365.00,$GNGGA,211348.000,4900.5770,N,00825.5601,E,0,0,,102.1,M,47.9,M,,*5D
'A1',23.00,34.00,3.00,10.00,1366.00,$GNGGA,211359.000,4900.5770,N,00825.5601,E,0,0,,102.1,M,47.9,M,,*5D
'A1',24.00,30.00,4.00,18.00,1367.00,$GNGGA,211410.000,4900.5770,N,00825.5601,E,0,0,,102.1,M,47.9,M,,*57
'A1',23.00,34.00,9.00,13.00,1368.00,$GNGGA,211421.000,4900.5770,N,00825.5601,E,0,0,,102.1,M,47.9,M,,*55
'A1',24.00,32.00,4.00,10.00,1369.00,$GNGGA,211432.000,4900.5770,N,00825.5601,E,0,0,,102.1,M,47.9,M,,*57
'A1',24.00,34.00,6.00,11.00,1370.00,$GNGGA,211443.001,4900.5770,N,00825.5601,E,0,0,,102.1,M,47.9,M,,*50
'A1',24.00,34.00,5.00,10.00,1371.00,$GNGGA,211454.001,4900.5770,N,00825.5601,E,0,0,,102.1,M,47.9,M,,*56
'A1',21.00,30.00,4.00,10.00,1372.00,$GNGGA,211505.001,4900.5770,N,00825.5601,E,0,0,,102.1,M,47.9,M,,*53
'A1',22.00,30.00,9.00,10.00,1373.00,$GNGGA,211516.001,4900.5770,N,00825.5601,E,0,0,,102.1,M,47.9,M,,*51
'A1',21.00,34.00,5.00,19.00,1374.00,$GNGGA,211527.001,4900.5770,N,00825.5601,E,0,0,,102.1,M,47.9,M,,*53
'A1',20.00,34.00,9.00,17.00,1375.00,$GNGGA,211538.001,4900.5770,N,00825.5601,E,0,0,,102.1,M,47.9,M,,*5D
'A1',20.00,30.00,9.00,17.00,1376.00,$GNGGA,211549.001,4900.5770,N,00825.5601,E,0,0,,102.1,M,47.9,M,,*5B
'A1',23.00,34.00,7.00,13.00,1377.00,$GNGGA,211600.001,4900.5770,N,00825.5601,E,0,0,,102.1,M,47.9,M,,*55
'A1',24.00,34.00,7.00,15.00,1378.00,$GNGGA,211611.001,4900.5770,N,00825.5601,E,0,0,,102.1,M,47.9,M,,*55
'A1',22.00,30.00,7.00,13.00,1379.00,$GNGGA,211622.001,4900.5770,N,00825.5601,E,0,0,,102.1,M,47.9,M,,*55
'A1',24.00,31.00,9.00,11.00,1380.00,$GNGGA,211633.001,4900.5770,N,00825.5601,E,0,0,,102.1,M,47.9,M,,*55
'A1',22.00,34.00,7.00,15.00,1381.00,$GNGGA,211644.001,4900.5770,N,00825.5601,E,0,0,,102.1,M,47.9,M,,*55
'A1',21.00,33.00,9.00,12.00,1382.00,$GNGGA,211655.001,4900.5770,N,00825.5601,E,0,0,,102.1,M,47.9,M,,*55
'A1',24.00,33.00,6.00,17.00,1383.00,$GNGGA,211706.001,4900.5770,N,00825.5601,E,0,0,,102.1,M,47.9,M,,*52
'A1',24.00,34.00,3.00,11.00,1384.00,$GNGGA,211717.001,4900.5770,N,00825.5601,E,0,0,,102.1,M,47.9,M,,*52
'A1',20.00,31.00,8.00,12.00,1385.00,$GNGGA,211728.001,4900.5770,N,00825.5601,E,0,0,,102.1,M,47.9,M,,*5E
'A1',21.00,31.00,9.00,16.00,1386.00,$GNGGA,211739.001,4900.5770,N,00825.5601,E,0,0,,102.1,M,47.9,M,,*5E
'A1',23.00,32.00,7.00,11.00,1387.00,$GNGGA,211750.001,4900.5770,N,00825.5601,E,0,0,,102.1,M,47.9,M,,*51
'A1',24.00,30.00,4.00,13.00,1388.00,$GNGGA,211801.001,4900.5770,N,00825.5601,E,0,0,,102.1,M,47.9,M,,*5A
'A1',24.00,33.00,4.00,16.00,1389.00,$GNGGA,211812.001,4900.5770,N,00825.5601,E,0,0,,102.1,M,47.9,M,,*58
'A1',20.00,30.00,3.00,11.00,1390.00,$GNGGA,211823.001,4900.5770,N,00825.5601,E,0,0,,102.1,M,47.9,M,,*5A
'A1',22.00,34.00,6.00,19.00,1391.00,$GNGGA,211834.001,4900.5770,N,00825.5601,E,0,0,,102.1,M,47.9,M,,*5C
'A1',21.00,31.00,3.00,10.00,1392.00,$GNGGA,211845.001,4900.5770,N,00825.5601,E,0,0,,102.1,M,47.9,M,,*5A
'A1',23.00,31.00,4.00,16.00,1393.00,$GNGGA,211856.001,4900.5770,N,00825.5601,E,0,0,,102.1,M,47.9,M,,*58
'A1',22.00,32.00,5.00,14.00,1394.00,$GNGGA,211907.001,4900.5770,N,00825.5601,E,0,0,,102.1,M,47.9,M,,*5D
'A1',21.00,33.00,6.00,10.00,1395.00,$GNGGA,211918.001,4900.5770,N,00825.5601,E,0,0,,102.1,M,47.9,M,,*53
'A1',22.00,32.00,8.00,17.00,1396.00,$GNGGA,211929.001,4900.5770,N,00825.5601,E,0,0,,102.1,M,47.9,M,,*51
'A1',21.00,32.00,3.00,10.00,1397.00,$GNGGA,211940.001,4900.5770,N,00825.5601,E,0,0,,102.1,M,47.9,M,,*5E
'A1',23.00,31.00,9.00,11.00,1398.00,$GNGGA,211951.001,4900.5770,N,00825.5601,E,0,0,,102.1,M,47.9,M,,*5E
'A1',20.00,33.00,7.00,14.00,1399.00,$GNGGA,212002.001,4900.5770,N,00825.5601,E,0,0,,102.1,M,47.9,M,,*52
'A1',24.00,32.00,4.00,12.00,1400.00,$GNGGA,212013.001,4900.5770,N,00825.5601,E,0,0,,102.1,M,47.9,M,,*52
'A1',21.00,34.00,3.00,15.00,1401.00,$GNGGA,212024.001,4900.5770,N,00825.5601,E,0,0,,102.1,M,47.9,M,,*56
'A1',22.00,31.00,8.00,16.00,1402.00,$GNGGA,212035.001,4900.5770,N,00825.5601,E,0,0,,102.1,M,47.9,M,,*56
'A1',22.00,31.00,8.00,16.00,1403.00,$GNGGA,212046.001,4900.5770,N,00825.5601,E,0,0,,102.1,M,47.9,M,,*52
'A1',20.00,34.00,6.00,11.00,1404.00,$GNGGA,212057.001,4900.5770,N,00825.5601,E,0,0,,102.1,M,47.9,M,,*52
'A1',23.00,31.00,2.00,15.00,1405.00,$GNGGA,212108.001,4900.5770,N,00825.5601,E,0,0,,102.1,M,47.9,M,,*59
'A1',24.00,31.00,8.00,15.00,1406.00,$GNGGA,212119.001,4900.5770,N,00825.5601,E,0,0,,102.1,M,47.9,M,,*59
'A1',20.00,33.00,2.00,10.00,1407.00,$GNGGA,212130.001,4900.5770,N,00825.5601,E,0,0,,102.1,M,47.9,M,,*52
'A1',22.00,34.00,8.00,19.00,1408.00,$GNGGA,212141.001,4900.5770,N,00825.5601,E,0,0,,102.1,M,47.9,M,,*54
'A1',20.00,30.00,6.00,13.00,1409.00,$GNGGA,212152.001,4900.5770,N,00825.5601,E,0,0,,102.1,M,47.9,M,,*56
'A1',20.00,34.00,6.00,18.00,1410.00,$GNGGA,212203.001,4900.5770,N,00825.5601,E,0,0,,102.1,M,47.9,M,,*51
'A1',22.00,33.00,6.00,18.00,1411.00,$GNGGA,212214.001,4900.5770,N,00825.5601,E,0,0,,102.1,M,47.9,M,,*57
'A1',22.00,33.00,3.00,19.00,1412.00,$GNGGA,212225.001,4900.5770,N,00825.5601,E,0,0,,102.1,M,47.9,M,,*55
'A1',22.00,31.00,3.00,13.00,1413.00,$GNGGA,212236.001,4900.5770,N,00825.5601,E,0,0,,102.1,M,47.9,M,,*57
'A1',20.00,33.00,8.00,13.00,1414.00,$GNGGA,212247.001,4900.5770,N,00825.5601,E,0,0,,102.1,M,47.9,M,,*51
'A1',20.00,30.00,6.00,17.00,1415.00,$GNGGA,212258.001,4900.5770,N,00825.5601,E,0,0,,102.1,M,47.9,M,,*5F
'A1',20.00,33.00,2.00,13.00,1416.00,$GNGGA,212309.001,4900.5770,N,00825.5601,E,0,0,,102.1,M,47.9,M,,*5A
'A1',22.00,30.00,6.00,13.00,1417.00,$GNGGA,212320.001,4900.5770,N,00825.5601,E,0,0,,102.1,M,47.9,M,,*51
'A1',21.00,32.00,5.00,11.00,1418.00,$GNGGA,212331.001,4900.5770,N,00825.5601,E,0,0,,102.1,M,47.9,M,,*51
'A1',21.00,32.00,5.00,12.00,1419.00,$GNGGA,212342.001,4900.5770,N,00825.5601,E,0,0,,102.1,M,47.9,M,,*55
'A1',22.00,31.00,3.00,16.00,1420.00,$GNGGA,212353.001,4900.5770,N,00825.5601,E,0,0,,102.1,M,47.9,M,,*55
'A1',23.00,31.00,4.00,14.00,1421.00,$GNGGA,212404.001,4900.5770,N,00825.5601,E,0,0,,102.1,M,47.9,M,,*50
'A1',23.00,30.00,4.00,17.00,1422.00,$GNGGA,212415.001,4900.5770,N,00825.5601,E,0,0,,102.1,M,47.9,M,,*50
'A1',21.00,32.00,9.00,15.00,1423.00,$GNGGA,212426.001,4900.5770,N,00825.5601,E,0,0,,102.1,M,47.9,M,,*50
'A1',21.00,31.00,8.00,16.00,1424.00,$GNGGA,212437.001,4900.5770,N,00825.5601,E,0,0,,102.1,M,47.9,M,,*50
'A1',24.00,32.00,4.00,10.00,1425.00,$GNGGA,212448.001,4900.5770,N,00825.5601,E,0,0,,102.1,M,47.9,M,,*58
'A1',21.00,33.00,9.00,18.00,1426.00,$GNGGA,212459.001,4900.5770,N,00825.5601,E,0,0,,102.1,M,47.9,M,,*58
'A1',22.00,31.00,6.00,19.00,1427.00,$GNGGA,212510.001,4900.5770,N,00825.5601,E,0,0,,102.1,M,47.9,M,,*54
'A1',20.00,33.00,5.00,13.00,1428.00,$GNGGA,212521.001,4900.5770,N,00825.5601,E,0,0,,102.1,M,47.9,M,,*56
'A1',22.00,30.00,3.00,14.00,1429.00,$GNGGA,212532.001,4900.5770,N,00825.5601,E,0,0,,102.1,M,47.9,M,,*54
'A1',21.00,30.00,7.00,11.00,1430.00,$GNGGA,212543.001,4900.5770,N,00825.5601,E,0,0,,102.1,M,47.9,M,,*52
'A1',20.00,31.00,7.00,13.00,1431.00,$GNGGA,212554.001,4900.5770,N,00825.5601,E,0,0,,102.1,M,47.9,M,,*54
'A1',22.00,30.00,8.00,17.00,1432.00,$GNGGA,212605.001,4900.5770,N,00825.5601,E,0,0,,102.1,M,47.9,M,,*53
'A1',22.00,33.00,3.00,18.00,1433.00,$GNGGA,212616.001,4900.5770,N,00825.5601,E,0,0,,102.1,M,47.9,M,,*51
'A1',24.00,30.00,8.00,13.00,1434.00,$GNGGA,212627.001,4900.5770,N,00825.5601,E,0,0,,102.1,M,47.9,M,,*53
'A1',23.00,31.00,8.00,17.00,1435.00,$GNGGA,212638.001,4900.5770,N,00825.5601,E,0,0,,102.1,M,47.9,M,,*5D
'A1',20.00,30.00,2.00,16.00,1436.00,$GNGGA,212649.001,4900.5770,N,00825.5601,E,0,0,,102.1,M,47.9,M,,*5B
'A1',24.00,32.00,2.00,17.00,1437.00,$GNGGA,212700.001,4900.5770,N,00825.5601,E,0,0,,102.1,M,47.9,M,,*57
'A1',20.00,34.00,9.00,19.00,1438.00,$GNGGA,212711.001,4900.5770,N,00825.5601,E,0,0,,102.1,M,47.9,M,,*57
'A1',24.00,30.00,2.00,10.00,1439.00,$GNGGA,212722.001,4900.5770,N,00825.5601,E,0,0,,102.1,M,47.9,M,,*57
'A1',24.00,33.00,9.00,16.00,1440.00,$GNGGA,212733.001,4900.5770,N,00825.5601,E,0,0,,102.1,M,47.9,M,,*57
'A1',23.00,33.00,4.00,12.00,1441.00,$GNGGA,212744.001,4900.5770,N,00825.5601,E,0,0,,102.1,M,47.9,M,,*57
'A1',22.00,32.00,5.00,17.00,1442.00,$GNGGA,212755.001,4900.5770,N,00825.5601,E,0,0,,102.1,M,47.9,M,,*57
'A1',23.00,33.00,5.00,11.00,1443.00,$GNGGA,212806.001,4900.5770,N,00825.5601,E,0,0,,102.1,M,47.9,M,,*5E
'A1',21.00,33.00,4.00,12.00,1444.00,$GNGGA,212817.001,4900.5770,N,00825.5601,E,0,0,,102.1,M,47.9,M,,*5E
'A1',23.00,33.00,2.00,16.00,1445.00,$GNGGA,212828.001,4900.5770,N,00825.5601,E,0,0,,102.1,M,47.9,M,,*52
'A1',20.00,32.00,2.00,10.00,1446.00,$GNGGA,212839.001,4900.5770,N,00825.5601,E,0,0,,102.1,M,47.9,M,,*52
'A1',22.00,34.00,3.00,16.00,1447.00,$GNGGA,212850.001,4900.5770,N,00825.5601,E,0,0,,102.1,M,47.9,M,,*5D
'A1',24.00,30.00,4.00,13.00,1448.00,$GNGGA,212901.001,4900.5770,N,00825.5601,E,0,0,,102.1,M,47.9,M,,*58
'A1',23.00,32.00,4.00,16.00,1449.00,$GNGGA,212912.001,4900.5770,N,00825.5601,E,0,0,,102.1,M,47.9,M,,*5A
'A1',23.00,30.00,7.00,12.00,1450.00,$GNGGA,212923.001,4900.5770,N,00825.5601,E,0,0,,102.1,M,47.9,M,,*58
'A1',21.00,31.00,4.00,17.00,1451.00,$GNGGA,212934.001,4900.5770,N,00825.5601,E,0,0,,102.1,M,47.9,M,,*5E
'A1',24.00,33.00,2.00,16.00,1452.00,$GNGGA,212945.001,4900.5770,N,00825.5601,E,0,0,,102.1,M,47.9,M,,*58
'A1',20.00,34.00,2.00,15.00,1453.00,$GNGGA,212956.001,4900.5770,N,00825.5601,E,0,0,,102.1,M,47.9,M,,*5A
'A1',24.00,30.00,7.00,15.00,1454.00,$GNGGA,213007.001,4900.5770,N,00825.5601,E,0,0,,102.1,M,47.9,M,,*56
'A1',21.00,33.00,2.00,16.00,1455.00,$GNGGA,213018.001,4900.5770,N,00825.5601,E,0,0,,102.1,M,47.9,M,,*58
'A1',22.00,33.00,8.00,18.00,1456.00,$GNGGA,213029.001,4900.5770,N,00825.5601,E,0,0,,102.1,M,47.9,M,,*5A
'A1',22.00,30.00,7.00,12.00,1457.00,$GNGGA,213040.001,4900.5770,N,00825.5601,E,0,0,,102.1,M,47.9,M,,*55
'A1',23.00,30.00,6.00,11.00,1458.00,$GNGGA,213051.001,4900.5770,N,00825.5601,E,0,0,,102.1,M,47.9,M,,*55
'A1',22.00,34.00,6.00,14.00,1459.00,$GNGGA,213102.001,4900.5770,N,00825.5601,E,0,0,,102.1,M,47.9,M,,*52
'A1',20.00,31.00,3.00,17.00,1460.00,$GNGGA,213113.001,4900.5770,N,00825.5601,E,0,0,,102.1,M,47.9,M,,*52
'A1',24.00,32.00,2.00,14.00,1461.00,$GNGGA,213124.001,4900.5770,N,00825.5601,E,0,0,,102.1,M,47.9,M,,*56
'A1',21.00,34.00,6.00,10.00,1462.00,$GNGGA,213135.001,4900.5770,N,00825.5601,E,0,0,,102.1,M,47.9,M,,*56
'A1',23.00,34.00,3.00,10.00,1463.00,$GNGGA,213146.001,4900.5770,N,00825.5601,E,0,0,,102.1,M,47.9,M,,*52
'A1',20.00,30.00,2.00,10.00,1464.00,$GNGGA,213157.001,4900.5770,N,00825.5601,E,0,0,,102.1,M,47.9,M,,*52
'A1',24.00,31.00,3.00,15.00,1465.00,$GNGGA,213208.001,4900.5770,N,00825.5601,E,0,0,,102.1,M,47.9,M,,*5B
'A1',22.00,33.00,7.00,19.00,1466.00,$GNGGA,213219.001,4900.5770,N,00825.5601,E,0,0,,102.1,M,47.9,M,,*5B
'A1',20.00,33.00,9.00,17.00,1467.00,$GNGGA,213230.001,4900.5770,N,00825.5601,E,0,0,,102.1,M,47.9,M,,*50
'A1',23.00,30.00,8.00,19.00,1468.00,$GNGGA,213241.001,4900.5770,N,00825.5601,E,0,0,,102.1,M,47.9,M,,*56
'A1',22.00,33.00,5.00,16.00,1469.00,$GNGGA,213252.001,4900.5770,N,00825.5601,E,0,0,,102.1,M,47.9,M,,*54
'A1',22.00,30.00,8.00,18.00,1470.00,$GNGGA,213303.001,4900.5770,N,00825.5601,E,0,0,,102.1,M,47.9,M,,*51
'A1',21.00,31.00,7.00,13.00,1471.00,$GNGGA,213314.001,4900.5770,N,00825.5601,E,0,0,,102.1,M,47.9,M,,*57
'A1',22.00,30.00,4.00,11.00,1472.00,$GNGGA,213325.001,4900.5770,N,00825.5601,E,0,0,,102.1,M,47.9,M,,*55
'A1',22.00,33.00,2.00,18.00,1473.00,$GNGGA,213336.001,4900.5770,N,00825.5601,E,0,0,,102.1,M,47.9,M,,*57
'A1',24.00,33.00,2.00,15.00,1474.00,$GNGGA,213347.001,4900.5770,N,00825.5601,E,0,0,,102.1,M,47.9,M,,*51
'A1',23.00,34.00,4.00,17.00,1475.00,$GNGGA,213358.001,4900.5770,N,00825.5601,E,0,0,,102.1,M,47.9,M,,*5F
'A1',21.00,34.00,8.00,13.00,1476.00,$GNGGA,213409.001,4900.5770,N,00825.5601,E,0,0,,102.1,M,47.9,M,,*5C
'A1',23.00,30.00,8.00,11.00,1477.00,$GNGGA,213420.001,4900.5770,N,00825.5601,E,0,0,,102.1,M,47.9,M,,*57
'A1',22.00,34.00,5.00,12.00,1478.00,$GNGGA,213431.001,4900.5770,N,00825.5601,E,0,0,,102.1,M,47.9,M,,*57
'A1',21.00,32.00,9.00,10.00,1479.00,$GNGGA,213442.001,4900.5770,N,00825.5601,E,0,0,,102.1,M,47.9,M,,*53
'A1',23.00,34.00,6.00,14.00,1480.00,$GNGGA,213453.001,4900.5770,N,00825.5601,E,0,0,,102.1,M,47.9,M,,*53
'A1',21.00,33.00,3.00,12.00,1481.00,$GNGGA,213504.001,4900.5770,N,00825.5601,E,0,0,,102.1,M,47.9,M,,*50
'A1',23.00,32.00,8.00,15.00,1482.00,$GNGGA,213515.001,4900.5770,N,00825.5601,E,0,0,,102.1,M,47.9,M,,*50
'A1',23.00,31.00,9.00,10.00,1483.00,$GNGGA,213526.001,4900.5770,N,00825.5601,E,0,0,,102.1,M,47.9,M,,*50
'A1',23.00,32.00,8.00,10.00,1484.00,$GNGGA,213537.001,4900.5770,N,00825.5601,E,0,0,,102.1,M,47.9,M,,*50
'A1',20.00,30.00,2.00,13.00,1485.00,$GNGGA,213548.001,4900.5770,N,00825.5601,E,0,0,,102.1,M,47.9,M,,*58
'A1',21.00,31.00,6.00,10.00,1486.00,$GNGGA,213559.001,4900.5770,N,00825.5601,E,0,0,,102.1,M,47.9,M,,*58
'A1',23.00,31.00,7.00,11.00,1487.00,$GNGGA,213610.001,4900.5770,N,00825.5601,E,0,0,,102.1,M,47.9,M,,*56
'A1',24.00,32.00,6.00,10.00,1488.00,$GNGGA,213621.001,4900.5770,N,00825.5601,E,0,0,,102.1,M,47.9,M,,*54
'A1',23.00,33.00,3.00,10.00,1489.00,$GNGGA,213632.001,4900.5770,N,00825.5601,E,0,0,,102.1,M,47.9,M,,*56
'A1',21.00,33.00,2.00,16.00,1490.00,$GNGGA,213643.001,4900.5770,N,00825.5601,E,0,0,,102.1,M,47.9,M,,*50
'A1',20.00,30.00,9.00,18.00,1491.00,$GNGGA,213654.001,4900.5770,N,00825.5601,E,0,0,,102.1,M,47.9,M,,*56
'A1',23.00,33.00,7.00,11.00,1492.00,$GNGGA,213705.001,4900.5770,N,00825.5601,E,0,0,,102.1,M,47.9,M,,*53
'A1',24.00,31.00,6.00,15.00,1493.00,$GNGGA,213716.001,4900.5770,N,00825.5601,E,0,0,,102.1,M,47.9,M,,*51
'A1',21.00,30.00,9.00,11.00,1494.00,$GNGGA,213727.001,4900.5770,N,00825.5601,E,0,0,,102.1,M,47.9,M,,*53
'A1',21.00,31.00,3.00,11.00,1495.00,$GNGGA,213738.001,4900.5770,N,00825.5601,E,0,0,,102.1,M,47.9,M,,*5D
'A1',21.00,32.00,3.00,14.00,1496.00,$GNGGA,213749.001,4900.5770,N,00825.5601,E,0,0,,102.1,M,47.9,M,,*5B
'A1',22.00,33.00,4.00,11.00,1497.00,$GNGGA,213800.001,4900.5770,N,00825.5601,E,0,0,,102.1,M,47.9,M,,*59
'A1',23.00,30.00,4.00,10.00,1498.00,$GNGGA,213811.001,4900.5770,N,00825.5601,E,0,0,,102.1,M,47.9,M,,*59
'A1',20.00,30.00,8.00,14.00,1499.00,$GNGGA,213822.001,4900.5770,N,00825.5601,E,0,0,,102.1,M,47.9,M,,*59
'A1',23.00,31.00,8.00,19.00,1500.00,$GNGGA,213833.001,4900.5770,N,00825.5601,E,0,0,,102.1,M,47.9,M,,*59
'A1',24.00,30.00,5.00,19.00,1501.00,$GNGGA,213844.001,4900.5770,N,00825.5601,E,0,0,,102.1,M,47.9,M,,*59
'A1',23.00,32.00,2.00,14.00,1502.00,$GNGGA,213855.001,4900.5770,N,00825.5601,E,0,0,,102.1,M,47.9,M,,*59
'A1',21.00,31.00,6.00,18.00,1503.00,$GNGGA,213906.001,4900.5770,N,00825.5601,E,0,0,,102.1,M,47.9,M,,*5E
'A1',24.00,34.00,9.00,11.00,1504.00,$GNGGA,213917.001,4900.5770,N,00825.5601,E,0,0,,102.1,M,47.9,M,,*5E
'A1',21.00,30.00,7.00,19.00,1505.00,$GNGGA,213928.001,4900.5770,N,00825.5601,E,0,0,,102.1,M,47.9,M,,*52
'A1',24.00,30.00,7.00,15.00,1506.00,$GNGGA,213939.001,4900.5770,N,00825.5601,E,0,0,,102.1,M,47.9,M,,*52
'A1',24.00,34.00,9.00,13.00,1507.00,$GNGGA,213950.001,4900.5770,N,00825.5601,E,0,0,,102.1,M,47.9,M,,*5D
'A1',22.00,34.00,5.00,13.00,1508.00,$GNGGA,214001.001,4900.5770,N,00825.5601,E,0,0,,102.1,M,47.9,M,,*57
'A1',23.00,34.00,4.00,12.00,1509.00,$GNGGA,214012.001,4900.5770,N,00825.5601,E,0,0,,102.1,M,47.9,M,,*55
'A1',22.00,34.00,8.00,12.00,1510.00,$GNGGA,214023.001,4900.5770,N,00825.5601,E,0,0,,102.1,M,47.9,M,,*57
'A1',22.00,31.00,6.00,15.00,1511.00,$GNGGA,214034.001,4900.5770,N,00825.5601,E,0,0,,102.1,M,47.9,M,,*51
'A1',24.00,32.00,6.00,17.00,1512.00,$GNGGA,214045.001,4900.5770,N,00825.5601,E,0,0,,102.1,M,47.9,M,,*57
'A1',20.00,31.00,4.00,10.00,1513.00,$GNGGA,214056.001,4900.5770,N,00825.5601,E,0,0,,102.1,M,47.9,M,,*55
'A1',22.00,30.00,7.00,19.00,1514.00,$GNGGA,214107.001,4900.5770,N,00825.5601,E,0,0,,102.1,M,47.9,M,,*50
'A1',22.00,33.00,2.00,12.00,1515.00,$GNGGA,214118.001,4900.5770,N,00825.5601,E,0,0,,102.1,M,47.9,M,,*5E
'A1',22.00,30.00,5.00,15.00,1516.00,$GNGGA,214129.001,4900.5770,N,00825.5601,E,0,0,,102.1,M,47.9,M,,*5C
'A1',24.00,33.00,9.00,10.00,1517.00,$GNGGA,214140.001,4900.5770,N,00825.5601,E,0,0,,102.1,M,47.9,M,,*53
'A1',22.00,30.00,2.00,15.00,1518.00,$GNGGA,214151.001,4900.5770,N,00825.5601,E,0,0,,102.1,M,47.9,M,,*53
'A1',22.00,30.00,2.00,11.00,1519.00,$GNGGA,214202.001,4900.5770,N,00825.5601,E,0,0,,102.1,M,47.9,M,,*56
'A1',21.00,31.00,4.00,13.00,1520.00,$GNGGA,214213.001,4900.5770,N,00825.5601,E,0,0,,102.1,M,47.9,M,,*56
'A1',22.00,34.00,5.00,14.00,1521.00,$GNGGA,214224.001,4900.5770,N,00825.5601,E,0,0,,102.1,M,47.9,M,,*52
'A1',21.00,31.00,3.00,10.00,1522.00,$GNGGA,214235.001,4900.5770,N,00825.5601,E,0,0,,102.1,M,47.9,M,,*52
'A1',20.00,31.00,5.00,16.00,1523.00,$GNGGA,214246.001,4900.5770,N,00825.5601,E,0,0,,102.1,M,47.9,M,,*56
'A1',20.00,33.00,8.00,19.00,1524.00,$GNGGA,214257.001,4900.5770,N,00825.5601,E,0,0,,102.1,M,47.9,M,,*56
'A1',24.00,31.00,4.00,12.00,1525.00,$GNGGA,214308.001,4900.5770,N,00825.5601,E,0,0,,102.1,M,47.9,M,,*5D
'A1',24.00,30.00,3.00,14.00,1526.00,$GNGGA,214319.001,4900.5770,N,00825.5601,E,0,0,,102.1,M,47.9,M,,*5D
'A1',24.00,32.00,7.00,15.00,1527.00,$GNGGA,214330.001,4900.5770,N,00825.5601,E,0,0,,102.1,M,47.9,M,,*56
'A1',23.00,30.00,7.00,14.00,1528.00,$GNGGA,214341.001,4900.5770,N,00825.5601,E,0,0,,102.1,M,47.9,M,,*50
'A1',20.00,32.00,8.00,15.00,1529.00,$GNGGA,214352.001,4900.5770,N,00825.5601,E,0,0,,102.1,M,47.9,M,,*52
'A1',24.00,34.00,9.00,14.00,1530.00,$GNGGA,214403.001,4900.5770,N,00825.5601,E,0,0,,102.1,M,47.9,M,,*51
'A1',22.00,32.00,3.00,13.00,1531.00,$GNGGA,214414.001,4900.5770,N,00825.5601,E,0,0,,102.1,M,47.9,M,,*57
'A1',23.00,33.00,5.00,15.00,1532.00,$GNGGA,214425.001,4900.5770,N,00825.5601,E,0,0,,102.1,M,47.9,M,,*55
'A1',22.00,34.00,7.00,14.00,1533.00,$GNGGA,214436.001,4900.5770,N,00825.5601,E,0,0,,102.1,M,47.9,M,,*57
'A1',23.00,33.00,3.00,19.00,1534.00,$GNGGA,214447.001,4900.5770,N,00825.5601,E,0,0,,102.1,M,47.9,M,,*51
'A1',22.00,33.00,3.00,11.00,1535.00,$GNGGA,214458.001,4900.5770,N,00825.5601,E,0,0,,102.1,M,47.9,M,,*5F
'A1',20.00,31.00,3.00,17.00,1536.00,$GNGGA,214509.001,4900.5770,N,00825.5601,E,0,0,,102.1,M,47.9,M,,*5A
'A1',20.00,31.00,4.00,13.00,1537.00,$GNGGA,214520.001,4900.5770,N,00825.5601,E,0,0,,102.1,M,47.9,M,,*51
'A1',20.00,34.00,2.00,19.00,1538.00,$GNGGA,214531.001,4900.5770,N,00825.5601,E,0,0,,102.1,M,47.9,M,,*51
'A1',24.00,32.00,9.00,16.00,1539.00,$GNGGA,214542.001,4900.5770,N,00825.5601,E,0,0,,102.1,M,47.9,M,,*55
'A1',20.00,32.00,5.00,18.00,1540.00,$GNGGA,214553.001,4900.5770,N,00825.5601,E,0,0,,102.1,M,47.9,M,,*55
'A1',22.00,30.00,3.00,13.00,1541.00,$GNGGA,214604.001,4900.5770,N,00825.5601,E,0,0,,102.1,M,47.9,M,,*54
'A1',21.00,33.00,7.00,12.00,1542.00,$GNGGA,214615.001,4900.5770,N,00825.5601,E,0,0,,102.1,M,47.9,M,,*54
'A1',21.00,33.00,4.00,16.00,1543.00,$GNGGA,214626.001,4900.5770,N,00825.5601,E,0,0,,102.1,M,47.9,M,,*54
'A1',20.00,32.00,7.00,17.00,1544.00,$GNGGA,214637.001,4900.5770,N,00825.5601,E,0,0,,102.1,M,47.9,M,,*54
'A1',22.00,30.00,9.00,12.00,1545.00,$GNGGA,214648.001,4900.5770,N,00825.5601,E,0,0,,102.1,M,47.9,M,,*5C
'A1',22.00,30.00,7.00,11.00,1546.00,$GNGGA,214659.001,4900.5770,N,00825.5601,E,0,0,,102.1,M,47.9,M,,*5C
'A1',24.00,32.00,8.00,13.00,1547.00,$GNGGA,214710.001,4900.5770,N,00825.5601,E,0,0,,102.1,M,47.9,M,,*50
'A1',21.00,34.00,6.00,17.00,1548.00,$GNGGA,214721.001,4900.5770,N,00825.5601,E,0,0,,102.1,M,47.9,M,,*52
