created_at,entry_id,field1,field2,field3,field4,field5,field6,latitude,longitude,elevation,status.
2021-12-22T14:36:37+01:00,1,22.79,44.06,1010.33,12.40,19.50,"$GNGGA,133633.290,9000.0000,N,00000.0000,E,0,0,,137.0,M,13.0,M,,*5F",,,,
2021-12-22T14:36:57+01:00,2,23.05,42.73,1010.34,12.40,18.40,"$GNGGA,133653.306,9000.0000,N,00000.0000,E,0,0,,137.0,M,13.0,M,,*57",,,,
2021-12-22T14:37:17+01:00,3,23.42,41.49,1010.36,13.50,21.50,"$GNGGA,133713.094,9000.0000,N,00000.0000,E,0,0,,137.0,M,13.0,M,,*5A",,,,
2021-12-22T14:37:37+01:00,4,23.86,40.38,1010.37,13.60,21.50,"$GNGGA,133733.304,9000.0000,N,00000.0000,E,0,0,,137.0,M,13.0,M,,*52",,,,
2021-12-22T14:37:57+01:00,5,24.32,39.34,1010.39,14.60,22.30,"$GNGGA,133753.088,9000.0000,N,00000.0000,E,0,0,,137.0,M,13.0,M,,*53",,,,
2021-12-22T14:38:18+01:00,6,24.80,38.58,1010.39,13.60,22.00,"$GNGGA,133813.000,4900.5163,N,00825.4693,E,1,4,2.41,130.1,M,47.9,M,,*48",,,,
2021-12-22T14:38:38+01:00,7,25.27,37.83,1010.39,14.00,23.90,"$GNGGA,133833.000,4900.5156,N,00825.4529,E,1,5,1.86,135.9,M,47.9,M,,*4A",,,,
2021-12-22T14:38:59+01:00,8,25.71,37.21,1010.41,14.80,27.90,"$GNGGA,133854.000,4900.5210,N,00825.4519,E,1,5,1.85,138.6,M,47.9,M,,*48",,,,
2021-12-22T14:39:19+01:00,9,26.13,36.51,1010.41,15.60,26.50,"$GNGGA,133914.000,4900.5196,N,00825.4533,E,1,6,1.48,139.5,M,47.9,M,,*48",,,,
2021-12-22T14:39:39+01:00,10,26.53,35.95,1010.42,15.20,23.50,"$GNGGA,133934.000,4900.5200,N,00825.4544,E,1,6,1.48,140.4,M,47.9,M,,*49",,,,
2021-12-22T14:40:00+01:00,11,26.90,35.32,1010.42,13.90,18.70,"$GNGGA,133955.000,4900.5239,N,00825.4536,E,1,5,2.76,141.3,M,47.9,M,,*4A",,,,
2021-12-22T14:40:20+01:00,12,27.24,34.81,1010.43,13.80,20.80,"$GNGGA,134015.000,4900.5217,N,00825.4556,E,1,5,2.77,141.7,M,47.9,M,,*4F",,,,
2021-12-22T14:40:41+01:00,13,27.58,34.46,1010.43,13.70,20.70,"$GNGGA,134036.000,4900.5180,N,00825.4513,E,1,5,2.77,140.7,M,47.9,M,,*43",,,,
2021-12-22T14:41:02+01:00,14,27.88,33.79,1010.43,13.80,20.20,"$GNGGA,134057.000,4900.5186,N,00825.4539,E,1,6,1.47,140.7,M,47.9,M,,*49",,,,
2021-12-22T14:41:22+01:00,15,28.16,33.24,1010.43,14.60,18.20,"$GNGGA,134117.000,4900.5196,N,00825.4435,E,1,6,1.58,139.3,M,47.9,M,,*44",,,,
2021-12-22T14:41:42+01:00,16,28.43,32.92,1010.42,14.70,19.40,"$GNGGA,134137.000,4900.5189,N,00825.4425,E,1,5,2.78,137.9,M,47.9,M,,*4F",,,,
2021-12-22T14:42:03+01:00,17,28.68,32.35,1010.41,14.70,19.10,"$GNGGA,134158.000,4900.5187,N,00825.4552,E,1,5,2.79,136.8,M,47.9,M,,*48",,,,
2021-12-22T14:42:23+01:00,18,28.91,31.80,1010.42,14.10,21.00,"$GNGGA,134218.000,4900.5224,N,00825.4538,E,1,5,2.79,138.7,M,47.9,M,,*48",,,,
2021-12-22T14:42:43+01:00,19,29.13,31.53,1010.40,14.70,19.10,"$GNGGA,134238.000,4900.5203,N,00825.4606,E,1,5,2.80,139.9,M,47.9,M,,*48",,,,
2021-12-22T14:43:04+01:00,20,29.33,31.21,1010.40,14.20,18.00,"$GNGGA,134259.000,4900.5177,N,00825.4540,E,1,5,2.80,139.4,M,47.9,M,,*43",,,,
2021-12-22T14:43:24+01:00,21,29.52,30.89,1010.40,13.90,17.70,"$GNGGA,134319.000,4900.5214,N,00825.4576,E,1,6,1.46,139.1,M,47.9,M,,*4A",,,,
2021-12-22T14:43:44+01:00,22,29.70,30.79,1010.39,13.40,17.10,"$GNGGA,134339.000,4900.5223,N,00825.4575,E,1,6,1.46,138.9,M,47.9,M,,*46",,,,
2021-12-22T14:44:05+01:00,23,29.87,30.45,1010.38,14.70,18.60,"$GNGGA,134400.000,4900.5197,N,00825.4595,E,1,6,1.46,139.6,M,47.9,M,,*47",,,,
2021-12-22T14:44:25+01:00,24,30.02,30.12,1010.37,14.10,16.80,"$GNGGA,134420.000,4900.5184,N,00825.4540,E,1,6,1.45,140.2,M,47.9,M,,*46",,,,
2021-12-22T14:44:45+01:00,25,30.17,29.98,1010.37,14.60,19.60,"$GNGGA,134440.000,4900.5178,N,00825.4452,E,1,6,1.57,139.6,M,47.9,M,,*48",,,,
2021-12-22T14:45:06+01:00,26,30.31,29.79,1010.36,14.30,19.90,"$GNGGA,134501.000,4900.5179,N,00825.4293,E,1,5,5.33,136.4,M,47.9,M,,*4E",,,,
2021-12-22T14:45:26+01:00,27,30.44,29.64,1010.35,14.60,22.10,"$GNGGA,134521.000,4900.5201,N,00825.4277,E,1,5,2.83,133.7,M,47.9,M,,*40",,,,
2021-12-22T14:45:46+01:00,28,30.57,29.51,1010.34,14.00,21.30,"$GNGGA,134541.000,4900.5185,N,00825.4413,E,1,5,2.83,134.1,M,47.9,M,,*4C",,,,
2021-12-22T14:46:07+01:00,29,30.69,29.22,1010.33,12.50,19.90,"$GNGGA,134602.000,4900.5218,N,00825.4639,E,1,5,2.84,137.0,M,47.9,M,,*40",,,,
2021-12-22T14:46:27+01:00,30,30.80,29.09,1010.33,13.60,19.80,"$GNGGA,134622.000,4900.5180,N,00825.4670,E,1,4,3.34,138.1,M,47.9,M,,*48",,,,
2021-12-22T14:46:47+01:00,31,30.91,29.07,1010.31,13.80,17.00,"$GNGGA,134642.000,4900.5194,N,00825.4705,E,1,4,3.35,138.8,M,47.9,M,,*40",,,,
2021-12-22T14:47:08+01:00,32,31.01,28.93,1010.30,14.90,17.10,"$GNGGA,134703.000,4900.5208,N,00825.4522,E,1,5,1.53,139.4,M,47.9,M,,*4B",,,,
2021-12-22T14:47:28+01:00,33,31.11,28.68,1010.30,13.60,20.40,"$GNGGA,134723.000,4900.5215,N,00825.4515,E,1,5,1.52,142.3,M,47.9,M,,*4B",,,,
2021-12-22T14:47:48+01:00,34,31.20,28.33,1010.28,13.40,21.60,"$GNGGA,134743.000,4900.5213,N,00825.4569,E,1,5,1.52,141.3,M,47.9,M,,*43",,,,
2021-12-22T14:48:09+01:00,35,31.28,28.24,1010.27,13.50,23.00,"$GNGGA,134804.000,4900.5212,N,00825.4544,E,1,5,1.52,142.7,M,47.9,M,,*46",,,,
2021-12-22T14:48:29+01:00,36,31.35,28.12,1010.25,14.90,19.50,"$GNGGA,134824.000,4900.5206,N,00825.4601,E,1,5,1.51,145.0,M,47.9,M,,*40",,,,
2021-12-22T14:48:49+01:00,37,31.42,28.09,1010.23,15.50,18.80,"$GNGGA,134844.000,4900.5216,N,00825.4621,E,1,5,1.51,144.2,M,47.9,M,,*46",,,,
2021-12-22T14:49:10+01:00,38,31.48,27.98,1010.23,15.30,18.60,"$GNGGA,134905.000,4900.5217,N,00825.4620,E,1,5,1.51,142.3,M,47.9,M,,*45",,,,
2021-12-22T14:49:31+01:00,39,31.54,27.89,1010.21,14.80,17.90,"$GNGGA,134926.000,4900.5207,N,00825.4550,E,1,5,1.50,142.5,M,47.9,M,,*46",,,,
2021-12-22T14:49:51+01:00,40,31.59,27.82,1010.19,14.10,18.20,"$GNGGA,134946.000,4900.5201,N,00825.4563,E,1,5,1.50,143.2,M,47.9,M,,*40",,,,
2021-12-22T14:50:12+01:00,41,31.63,27.86,1010.18,14.10,17.80,"$GNGGA,135007.000,4900.5198,N,00825.4529,E,1,5,1.50,143.2,M,47.9,M,,*40",,,,
2021-12-22T14:50:33+01:00,42,31.68,27.90,1010.18,13.00,14.60,"$GNGGA,135028.000,4900.5196,N,00825.4560,E,1,5,1.49,141.9,M,47.9,M,,*4F",,,,
2021-12-22T14:50:54+01:00,43,31.72,27.82,1010.17,13.70,16.10,"$GNGGA,135049.000,4900.5202,N,00825.4624,E,1,5,1.49,136.5,M,47.9,M,,*49",,,,
2021-12-22T14:51:14+01:00,44,31.76,27.67,1010.15,13.90,18.20,"$GNGGA,135109.000,4900.5218,N,00825.4636,E,2,5,1.49,132.2,M,47.9,M,,*44",,,,
2021-12-22T14:51:34+01:00,45,31.80,27.53,1010.16,15.20,24.80,"$GNGGA,135129.000,4900.5204,N,00825.4664,E,2,5,1.48,130.0,M,47.9,M,,*4D",,,,
2021-12-22T14:51:55+01:00,46,31.83,27.46,1010.15,14.60,23.70,"$GNGGA,135150.000,4900.5202,N,00825.4684,E,2,5,1.48,127.8,M,47.9,M,,*45",,,,
2021-12-22T14:52:15+01:00,47,31.87,27.29,1010.13,14.20,22.90,"$GNGGA,135210.000,4900.5213,N,00825.4708,E,2,5,1.48,124.6,M,47.9,M,,*4A",,,,
2021-12-22T14:52:35+01:00,48,31.90,27.17,1010.12,14.60,22.20,"$GNGGA,135230.000,4900.5214,N,00825.4732,E,2,5,1.48,116.5,M,47.9,M,,*44",,,,
2021-12-22T14:52:56+01:00,49,31.93,27.08,1010.13,15.40,22.80,"$GNGGA,135251.000,4900.5216,N,00825.4648,E,2,5,1.47,111.8,M,47.9,M,,*48",,,,
2021-12-22T14:53:16+01:00,50,31.95,27.02,1010.12,15.90,21.60,"$GNGGA,135311.000,4900.5238,N,00825.4750,E,2,5,1.47,109.0,M,47.9,M,,*48",,,,
2021-12-22T14:53:37+01:00,51,31.98,26.91,1010.12,15.40,17.50,"$GNGGA,135332.000,4900.5245,N,00825.4721,E,2,5,1.47,107.6,M,47.9,M,,*4D",,,,
2021-12-22T14:53:58+01:00,52,32.00,26.87,1010.13,14.20,16.30,"$GNGGA,135353.000,4900.5216,N,00825.4670,E,2,5,1.46,106.6,M,47.9,M,,*49",,,,
2021-12-22T14:54:18+01:00,53,32.02,26.84,1010.14,15.00,23.20,"$GNGGA,135413.000,4900.5201,N,00825.4616,E,2,5,1.46,105.8,M,47.9,M,,*41",,,,
2021-12-22T14:54:38+01:00,54,32.04,26.80,1010.14,16.10,24.00,"$GNGGA,135433.000,4900.5196,N,00825.4664,E,2,5,1.46,108.0,M,47.9,M,,*4E",,,,
2021-12-22T14:54:59+01:00,55,32.06,26.71,1010.15,18.00,26.80,"$GNGGA,135454.000,4900.5197,N,00825.4656,E,2,5,1.45,113.2,M,47.9,M,,*44",,,,
2021-12-22T14:55:19+01:00,56,32.07,26.60,1010.16,17.80,21.40,"$GNGGA,135514.000,4900.5204,N,00825.4654,E,2,5,1.45,114.3,M,47.9,M,,*4C",,,,
2021-12-22T14:55:39+01:00,57,32.09,26.54,1010.17,16.90,22.60,"$GNGGA,135534.000,4900.5218,N,00825.4556,E,2,5,1.45,117.8,M,47.9,M,,*4A",,,,
2021-12-22T14:56:00+01:00,58,32.10,26.53,1010.17,16.90,22.70,"$GNGGA,135555.000,4900.5219,N,00825.4578,E,2,5,1.44,121.1,M,47.9,M,,*4D",,,,
2021-12-22T14:56:20+01:00,59,32.11,26.47,1010.17,16.70,21.40,"$GNGGA,135615.000,4900.5217,N,00825.4590,E,2,5,1.44,122.7,M,47.9,M,,*47",,,,
2021-12-22T14:56:40+01:00,60,32.13,26.42,1010.17,15.20,17.00,"$GNGGA,135635.000,4900.5222,N,00825.4418,E,2,5,1.44,120.5,M,47.9,M,,*42",,,,
2021-12-22T14:57:01+01:00,61,32.14,26.37,1010.18,14.90,16.80,"$GNGGA,135656.000,4900.5203,N,00825.4467,E,2,5,1.44,122.8,M,47.9,M,,*43",,,,
2021-12-22T14:57:21+01:00,62,32.14,26.36,1010.17,15.70,18.50,"$GNGGA,135716.000,4900.5192,N,00825.4382,E,2,4,3.79,122.6,M,47.9,M,,*42",,,,
2021-12-22T14:57:41+01:00,63,32.15,26.28,1010.17,17.50,24.00,"$GNGGA,135736.000,4900.5224,N,00825.4445,E,2,4,3.81,121.6,M,47.9,M,,*46",,,,
2021-12-22T14:58:02+01:00,64,32.16,26.25,1010.18,18.70,24.10,"$GNGGA,135757.000,4900.5231,N,00825.4253,E,2,4,3.83,120.5,M,47.9,M,,*44",,,,
2021-12-22T14:58:22+01:00,65,32.16,26.23,1010.18,18.30,23.70,"$GNGGA,135817.000,4900.5226,N,00825.4522,E,2,5,1.43,119.1,M,47.9,M,,*49",,,,
2021-12-22T14:58:42+01:00,66,32.17,26.19,1010.18,17.00,18.30,"$GNGGA,135837.000,4900.5215,N,00825.4610,E,2,5,1.42,119.8,M,47.9,M,,*41",,,,
2021-12-22T14:59:03+01:00,67,32.17,26.18,1010.19,15.80,17.40,"$GNGGA,135858.000,4900.5215,N,00825.4650,E,2,5,1.42,124.0,M,47.9,M,,*4A",,,,
2021-12-22T14:59:23+01:00,68,32.17,26.11,1010.18,16.80,21.00,"$GNGGA,135918.000,4900.5205,N,00825.4612,E,2,5,1.42,125.6,M,47.9,M,,*4F",,,,
2021-12-22T14:59:43+01:00,69,32.17,26.14,1010.19,17.30,21.90,"$GNGGA,135938.000,4900.5200,N,00825.4516,E,2,5,1.41,125.8,M,47.9,M,,*42",,,,
2021-12-22T15:00:04+01:00,70,32.17,26.07,1010.18,17.10,26.10,"$GNGGA,135959.000,4900.5198,N,00825.4514,E,2,5,1.41,126.6,M,47.9,M,,*48",,,,
2021-12-22T15:00:24+01:00,71,32.18,26.03,1010.18,17.50,24.90,"$GNGGA,140019.000,4900.5190,N,00825.4558,E,2,5,1.41,126.0,M,47.9,M,,*41",,,,
2021-12-22T15:00:44+01:00,72,32.18,26.03,1010.18,18.00,27.80,"$GNGGA,140039.000,4900.5202,N,00825.4532,E,2,5,1.41,125.6,M,47.9,M,,*42",,,,
2021-12-22T15:01:05+01:00,73,32.18,26.01,1010.18,18.40,27.90,"$GNGGA,140100.000,4900.5175,N,00825.4485,E,2,5,1.40,124.9,M,47.9,M,,*48",,,,
2021-12-22T15:01:27+01:00,74,32.18,26.01,1010.17,17.50,28.10,"$GNGGA,140122.000,4900.5190,N,00825.4588,E,2,5,1.40,126.7,M,47.9,M,,*43",,,,
2021-12-22T15:01:48+01:00,75,32.19,25.99,1010.18,17.40,27.00,"$GNGGA,140143.000,4900.5202,N,00825.4567,E,2,5,1.40,129.1,M,47.9,M,,*44",,,,
2021-12-22T15:02:09+01:00,76,32.18,25.96,1010.18,17.40,27.30,"$GNGGA,140204.000,4900.5193,N,00825.4544,E,2,5,1.39,128.5,M,47.9,M,,*45",,,,
2021-12-22T15:02:29+01:00,77,32.18,25.95,1010.18,16.90,25.40,"$GNGGA,140224.000,4900.5190,N,00825.4611,E,2,5,1.39,126.5,M,47.9,M,,*49",,,,
2021-12-22T15:02:49+01:00,78,32.18,25.93,1010.17,16.40,24.40,"$GNGGA,140244.000,4900.5196,N,00825.4611,E,2,4,1.96,122.2,M,47.9,M,,*4E",,,,
2021-12-22T15:03:10+01:00,79,32.18,25.89,1010.16,16.10,23.40,"$GNGGA,140305.000,4900.5213,N,00825.4641,E,2,4,1.96,118.4,M,47.9,M,,*4E",,,,
2021-12-22T15:03:30+01:00,80,32.17,25.91,1010.15,16.00,21.00,"$GNGGA,140325.000,4900.5202,N,00825.4629,E,2,4,1.96,113.9,M,47.9,M,,*44",,,,
2021-12-22T15:03:50+01:00,81,32.17,25.78,1010.15,16.10,20.70,"$GNGGA,140345.000,4900.5190,N,00825.4499,E,2,5,1.38,113.7,M,47.9,M,,*48",,,,
2021-12-22T15:04:11+01:00,82,32.17,25.78,1010.14,15.90,18.00,"$GNGGA,140406.000,4900.5209,N,00825.4448,E,2,5,1.38,120.3,M,47.9,M,,*43",,,,
2021-12-22T15:04:31+01:00,83,32.16,25.87,1010.14,16.50,19.80,"$GNGGA,140426.000,4900.5218,N,00825.4536,E,2,4,4.23,125.9,M,47.9,M,,*48",,,,
2021-12-22T15:04:51+01:00,84,32.17,25.89,1010.14,15.60,19.40,"$GNGGA,140446.000,4900.5223,N,00825.4564,E,2,4,4.26,127.3,M,47.9,M,,*4C",,,,
2021-12-22T15:05:12+01:00,85,32.17,25.98,1010.14,16.00,20.70,"$GNGGA,140507.000,4900.5216,N,00825.4560,E,2,4,4.29,127.9,M,47.9,M,,*4F",,,,
2021-12-22T15:05:32+01:00,86,32.17,26.09,1010.13,17.30,25.20,"$GNGGA,140527.000,4900.5214,N,00825.4495,E,2,5,1.37,128.4,M,47.9,M,,*4D",,,,
2021-12-22T15:05:52+01:00,87,32.18,26.23,1010.14,17.70,25.60,"$GNGGA,140547.000,4900.5201,N,00825.4615,E,2,5,1.37,132.9,M,47.9,M,,*43",,,,
2021-12-22T15:06:13+01:00,88,32.17,26.25,1010.14,16.70,26.10,"$GNGGA,140608.000,4900.5213,N,00825.4518,E,2,5,1.36,133.4,M,47.9,M,,*4B",,,,
2021-12-22T15:06:43+01:00,89,32.15,26.28,1010.14,15.40,21.50,"$GNGGA,140638.000,4900.5214,N,00825.4499,E,2,5,1.36,132.5,M,47.9,M,,*47",,,,
2021-12-22T15:07:04+01:00,90,32.14,26.34,1010.13,15.60,22.40,"$GNGGA,140659.000,4900.5222,N,00825.4454,E,2,4,4.43,132.7,M,47.9,M,,*40",,,,
2021-12-22T15:07:24+01:00,91,32.12,26.35,1010.12,15.70,24.80,"$GNGGA,140719.000,4900.5235,N,00825.4400,E,2,4,4.46,130.5,M,47.9,M,,*47",,,,
2021-12-22T15:07:44+01:00,92,32.11,26.32,1010.12,16.30,23.00,"$GNGGA,140739.000,4900.5211,N,00825.4420,E,2,5,1.35,133.1,M,47.9,M,,*46",,,,
2021-12-22T15:08:05+01:00,93,32.10,26.31,1010.12,16.80,25.20,"$GNGGA,140800.000,4900.5190,N,00825.4497,E,2,5,1.35,131.2,M,47.9,M,,*44",,,,
2021-12-22T15:08:26+01:00,94,32.10,26.30,1010.11,17.70,24.90,"$GNGGA,140821.000,4900.5210,N,00825.4631,E,2,5,1.35,129.1,M,47.9,M,,*48",,,,
2021-12-22T15:08:46+01:00,95,32.10,26.30,1010.10,16.80,22.70,"$GNGGA,140841.000,4900.5222,N,00825.4676,E,2,5,1.35,129.8,M,47.9,M,,*45",,,,
2021-12-22T15:09:07+01:00,96,32.10,26.30,1010.10,17.70,22.50,"$GNGGA,140902.000,4900.5213,N,00825.4490,E,2,5,1.34,132.6,M,47.9,M,,*4E",,,,
2021-12-22T15:09:27+01:00,97,32.10,26.33,1010.10,17.00,20.60,"$GNGGA,140922.000,4900.5192,N,00825.4589,E,2,5,1.34,134.3,M,47.9,M,,*4C",,,,
2021-12-22T15:09:47+01:00,98,32.11,26.30,1010.09,17.40,23.90,"$GNGGA,140942.000,4900.5200,N,00825.4590,E,2,5,1.34,136.0,M,47.9,M,,*4B",,,,
2021-12-22T15:10:08+01:00,99,32.11,26.29,1010.09,15.80,20.80,"$GNGGA,141003.000,4900.5191,N,00825.4517,E,2,5,1.34,138.3,M,47.9,M,,*4F",,,,
2021-12-22T15:10:28+01:00,100,32.11,26.26,1010.09,15.40,21.30,"$GNGGA,141023.000,4900.5209,N,00825.4612,E,2,5,1.33,142.6,M,47.9,M,,*46",,,,
2021-12-22T15:10:48+01:00,101,32.11,26.27,1010.08,15.30,19.90,"$GNGGA,141043.000,4900.5229,N,00825.4558,E,2,5,1.33,147.0,M,47.9,M,,*4C",,,,
2021-12-22T15:11:36+01:00,102,32.07,26.49,1010.07,15.90,19.40,"$GNGGA,141131.000,4900.5238,N,00825.4623,E,2,5,1.33,155.7,M,47.9,M,,*43",,,,
2021-12-22T15:11:56+01:00,103,32.04,26.47,1010.06,17.20,23.50,"$GNGGA,141151.000,4900.5245,N,00825.4592,E,2,5,1.33,159.2,M,47.9,M,,*4F",,,,
2021-12-22T15:12:17+01:00,104,32.02,26.44,1010.05,16.70,21.20,"$GNGGA,141212.000,4900.5242,N,00825.4619,E,2,5,1.32,160.6,M,47.9,M,,*43",,,,
2021-12-22T15:12:37+01:00,105,31.98,26.42,1010.05,16.30,17.80,"$GNGGA,141232.000,4900.5260,N,00825.4562,E,2,5,1.32,159.7,M,47.9,M,,*45",,,,
2021-12-22T15:14:28+01:00,106,31.88,27.01,1010.03,16.60,20.10,"$GNGGA,141423.000,4900.5216,N,00825.4716,E,2,5,1.31,154.3,M,47.9,M,,*49",,,,
2021-12-22T15:14:48+01:00,107,31.81,26.94,1010.02,15.60,19.30,"$GNGGA,141443.000,4900.5255,N,00825.4466,E,2,5,1.31,156.8,M,47.9,M,,*45",,,,
2021-12-22T15:15:17+01:00,108,31.75,26.98,1010.01,15.00,18.80,"$GNGGA,141504.000,4900.5238,N,00825.4531,E,2,5,1.30,157.5,M,47.9,M,,*42",,,,
2021-12-22T15:15:38+01:00,109,31.71,27.02,1010.00,16.00,20.90,"$GNGGA,141533.000,4900.5239,N,00825.4449,E,2,5,1.30,155.3,M,47.9,M,,*4D",,,,
2021-12-22T15:16:11+01:00,110,31.69,27.03,1009.98,15.80,21.80,"$GNGGA,141553.000,4900.5242,N,00825.4465,E,2,5,1.30,154.5,M,47.9,M,,*4E",,,,
2021-12-22T15:16:37+01:00,111,31.66,27.04,1009.98,16.00,23.80,"$GNGGA,141629.000,4900.5229,N,00825.4548,E,2,5,1.30,155.3,M,47.9,M,,*44",,,,
2021-12-22T15:16:58+01:00,112,31.64,27.09,1009.97,16.50,26.10,"$GNGGA,141653.000,4900.5238,N,00825.4463,E,2,5,1.29,155.0,M,47.9,M,,*4A",,,,
2021-12-22T15:17:19+01:00,113,31.64,27.07,1009.96,16.90,31.90,"$GNGGA,141714.000,4900.5240,N,00825.4562,E,2,5,1.29,154.4,M,47.9,M,,*42",,,,
2021-12-22T15:17:39+01:00,114,31.63,27.07,1009.96,16.50,27.90,"$GNGGA,141734.000,4900.5235,N,00825.4443,E,2,5,1.29,154.0,M,47.9,M,,*44",,,,
2021-12-22T15:17:59+01:00,115,31.64,27.07,1009.95,16.40,25.70,"$GNGGA,141754.000,4900.5210,N,00825.4533,E,2,5,1.29,152.9,M,47.9,M,,*4C",,,,
2021-12-22T15:18:20+01:00,116,31.64,27.06,1009.93,15.90,18.90,"$GNGGA,141815.000,4900.5212,N,00825.4501,E,2,5,1.29,151.4,M,47.9,M,,*4B",,,,
2021-12-22T15:18:40+01:00,117,31.62,27.08,1009.92,15.50,19.90,"$GNGGA,141835.000,4900.5228,N,00825.4524,E,2,5,1.28,150.5,M,47.9,M,,*46",,,,
2021-12-22T15:19:00+01:00,118,31.62,27.08,1009.91,14.80,19.70,"$GNGGA,141855.000,4900.5251,N,00825.4525,E,2,5,1.28,150.1,M,47.9,M,,*4B",,,,
2021-12-22T15:19:21+01:00,119,31.61,27.18,1009.90,14.10,19.80,"$GNGGA,141916.000,4900.5226,N,00825.4416,E,2,5,1.28,149.4,M,47.9,M,,*41",,,,
2021-12-22T15:19:41+01:00,120,31.61,27.24,1009.89,14.50,21.70,"$GNGGA,141936.000,4900.5220,N,00825.4403,E,2,5,1.28,149.0,M,47.9,M,,*45",,,,
2021-12-22T15:20:01+01:00,121,31.60,27.33,1009.89,14.80,21.10,"$GNGGA,141956.000,4900.5223,N,00825.4480,E,2,5,1.28,148.4,M,47.9,M,,*4E",,,,
2021-12-22T15:20:22+01:00,122,31.60,27.35,1009.88,16.00,19.60,"$GNGGA,142017.000,4900.5198,N,00825.4576,E,2,4,1.36,147.0,M,47.9,M,,*4F",,,,
2021-12-22T15:20:42+01:00,123,31.60,27.41,1009.88,16.30,20.90,"$GNGGA,142037.000,4900.5210,N,00825.4495,E,2,5,1.27,144.6,M,47.9,M,,*46",,,,
2021-12-22T15:21:02+01:00,124,31.60,27.42,1009.87,15.70,24.70,"$GNGGA,142057.000,4900.5225,N,00825.4451,E,2,5,1.27,140.4,M,47.9,M,,*48",,,,
2021-12-22T15:21:23+01:00,125,31.60,27.36,1009.87,15.10,25.90,"$GNGGA,142118.000,4900.5228,N,00825.4425,E,2,5,1.27,139.4,M,47.9,M,,*42",,,,
2021-12-22T15:21:43+01:00,126,31.59,27.35,1009.86,15.20,23.60,"$GNGGA,142138.000,4900.5222,N,00825.4348,E,2,5,1.27,138.9,M,47.9,M,,*4A",,,,
2021-12-22T15:22:03+01:00,127,31.59,27.34,1009.86,16.90,20.90,"$GNGGA,142158.000,4900.5214,N,00825.4304,E,2,5,1.26,137.9,M,47.9,M,,*4F",,,,
2021-12-22T15:22:23+01:00,128,31.59,27.31,1009.86,16.50,21.80,"$GNGGA,142218.000,4900.5250,N,00825.4257,E,2,4,3.43,138.1,M,47.9,M,,*48",,,,
2021-12-22T15:22:43+01:00,129,31.59,27.30,1009.86,15.80,19.30,"$GNGGA,142238.000,4900.5267,N,00825.4121,E,2,4,6.20,138.7,M,47.9,M,,*4A",,,,
2021-12-22T15:23:03+01:00,130,31.59,27.30,1009.86,14.90,20.80,"$GNGGA,142258.000,4900.5249,N,00825.4127,E,2,4,6.25,140.4,M,47.9,M,,*4F",,,,
2021-12-22T15:23:24+01:00,131,31.59,27.31,1009.86,15.70,18.90,"$GNGGA,142319.000,4900.5249,N,00825.4120,E,2,4,6.31,139.9,M,47.9,M,,*4A",,,,
2021-12-22T15:23:44+01:00,132,31.59,27.34,1009.86,16.10,19.60,"$GNGGA,142339.000,4900.5244,N,00825.4322,E,2,4,6.36,141.0,M,47.9,M,,*44",,,,
2021-12-22T15:24:04+01:00,133,31.59,27.30,1009.87,15.80,16.60,"$GNGGA,142359.000,4900.5208,N,00825.4460,E,2,4,6.41,142.4,M,47.9,M,,*4C",,,,
2021-12-22T15:24:25+01:00,134,31.59,27.31,1009.87,16.30,20.20,"$GNGGA,142420.000,4900.5239,N,00825.4217,E,2,4,6.47,142.6,M,47.9,M,,*45",,,,
2021-12-22T15:24:45+01:00,135,31.58,27.32,1009.86,15.70,19.90,"$GNGGA,142440.000,4900.5269,N,00825.4318,E,2,4,9.38,144.3,M,47.9,M,,*4C",,,,
2021-12-22T15:25:05+01:00,136,31.58,27.32,1009.86,15.50,20.50,"$GNGGA,142500.000,4900.5195,N,00825.4246,E,2,4,6.57,143.0,M,47.9,M,,*41",,,,
2021-12-22T15:25:26+01:00,137,31.57,27.27,1009.86,14.90,18.90,"$GNGGA,142521.000,4900.5178,N,00825.4399,E,2,4,6.63,141.4,M,47.9,M,,*43",,,,
2021-12-22T15:25:47+01:00,138,31.56,27.29,1009.87,16.30,20.20,"$GNGGA,142542.000,4900.5144,N,00825.4620,E,2,4,6.68,139.4,M,47.9,M,,*4A",,,,
2021-12-22T15:26:07+01:00,139,31.56,27.36,1009.88,16.60,20.80,"$GNGGA,142602.000,4900.5096,N,00825.4830,E,2,4,6.74,139.0,M,47.9,M,,*45",,,,
2021-12-22T15:26:28+01:00,140,31.55,27.34,1009.88,16.30,19.60,"$GNGGA,142623.000,4900.5173,N,00825.4641,E,2,4,6.79,138.4,M,47.9,M,,*4C",,,,
2021-12-22T15:26:48+01:00,141,31.54,27.35,1009.88,15.30,20.10,"$GNGGA,142643.000,4900.5142,N,00825.4719,E,2,4,6.85,141.2,M,47.9,M,,*4F",,,,
2021-12-22T15:27:08+01:00,142,31.54,27.34,1009.88,16.20,20.20,"$GNGGA,142703.000,4900.5186,N,00825.4657,E,2,4,6.90,145.9,M,47.9,M,,*42",,,,
2021-12-22T15:27:29+01:00,143,31.53,27.27,1009.88,16.10,18.70,"$GNGGA,142724.000,4900.5164,N,00825.4673,E,2,4,6.96,147.6,M,47.9,M,,*46",,,,
2021-12-22T15:27:49+01:00,144,31.51,27.22,1009.88,16.60,21.20,"$GNGGA,142744.000,4900.5184,N,00825.4569,E,2,4,7.02,149.5,M,47.9,M,,*47",,,,
2021-12-22T15:28:09+01:00,145,31.50,27.14,1009.88,16.10,21.30,"$GNGGA,142804.000,4900.5176,N,00825.4603,E,2,4,7.08,151.3,M,47.9,M,,*4B",,,,
2021-12-22T15:28:32+01:00,146,31.49,26.92,1009.88,17.40,22.80,"$GNGGA,142827.000,4900.5253,N,00825.4351,E,2,4,7.14,150.3,M,47.9,M,,*40",,,,
2021-12-22T15:28:52+01:00,147,31.47,26.90,1009.88,17.80,19.00,"$GNGGA,142847.000,4900.5209,N,00825.4544,E,2,4,7.20,146.3,M,47.9,M,,*4B",,,,
2021-12-22T15:29:12+01:00,148,31.46,26.96,1009.88,16.70,20.90,"$GNGGA,142907.000,4900.5222,N,00825.4523,E,2,4,7.26,143.4,M,47.9,M,,*42",,,,
2021-12-22T15:29:32+01:00,149,31.45,26.71,1009.88,17.00,21.20,"$GNGGA,142927.000,4900.5272,N,00825.4292,E,2,4,7.31,140.7,M,47.9,M,,*4E",,,,
2021-12-22T15:29:53+01:00,150,31.43,26.45,1009.88,15.20,19.80,"$GNGGA,142948.000,4900.5329,N,00825.4068,E,2,4,7.37,139.3,M,47.9,M,,*43",,,,
2021-12-22T15:30:13+01:00,151,31.42,26.13,1009.88,15.70,18.30,"$GNGGA,143008.000,4900.5310,N,00825.4140,E,2,4,7.43,142.1,M,47.9,M,,*43",,,,
2021-12-22T15:30:34+01:00,152,31.41,25.81,1009.87,14.60,16.50,"$GNGGA,143029.000,4900.5313,N,00825.4181,E,2,4,7.49,145.6,M,47.9,M,,*44",,,,
2021-12-22T15:30:54+01:00,153,31.41,25.64,1009.87,14.40,16.50,"$GNGGA,143049.000,4900.5319,N,00825.4057,E,2,4,7.54,147.5,M,47.9,M,,*4F",,,,
2021-12-22T15:31:15+01:00,154,31.41,25.24,1009.87,14.20,17.20,"$GNGGA,143110.000,4900.5291,N,00825.4184,E,2,4,7.61,148.3,M,47.9,M,,*43",,,,
2021-12-22T15:31:36+01:00,155,31.40,25.12,1009.86,14.50,19.10,"$GNGGA,143131.000,4900.5272,N,00825.4288,E,2,4,7.67,151.1,M,47.9,M,,*4E",,,,
2021-12-22T15:31:56+01:00,156,31.40,24.99,1009.87,14.00,20.00,"$GNGGA,143151.000,4900.5216,N,00825.4361,E,2,4,7.73,151.7,M,47.9,M,,*4F",,,,
2021-12-22T15:32:16+01:00,157,31.39,24.83,1009.87,14.10,18.80,"$GNGGA,143211.000,4900.5293,N,00825.4252,E,2,4,7.78,152.8,M,47.9,M,,*43",,,,
2021-12-22T15:32:36+01:00,158,31.38,24.70,1009.86,14.00,16.50,"$GNGGA,143232.000,4900.5234,N,00825.4525,E,2,4,7.84,153.0,M,47.9,M,,*42",,,,
2021-12-22T15:32:57+01:00,159,31.38,24.57,1009.86,14.30,15.80,"$GNGGA,143252.000,4900.5288,N,00825.4313,E,2,4,7.90,153.7,M,47.9,M,,*42",,,,
2021-12-22T15:33:17+01:00,160,31.37,24.51,1009.86,14.60,17.10,"$GNGGA,143312.000,4900.5300,N,00825.4150,E,2,4,7.96,155.6,M,47.9,M,,*42",,,,
2021-12-22T15:33:38+01:00,161,31.37,24.45,1009.85,15.60,19.40,"$GNGGA,143333.000,4900.5285,N,00825.4238,E,2,4,8.02,156.6,M,47.9,M,,*41",,,,
2021-12-22T15:33:58+01:00,162,31.38,24.42,1009.85,16.40,20.20,"$GNGGA,143353.000,4900.5352,N,00825.4029,E,2,4,8.07,157.2,M,47.9,M,,*4E",,,,
2021-12-22T15:34:18+01:00,163,31.38,24.33,1009.85,15.60,18.50,"$GNGGA,143413.000,4900.5311,N,00825.4058,E,2,4,8.13,157.6,M,47.9,M,,*4D",,,,
2021-12-22T15:34:39+01:00,164,31.38,24.33,1009.86,14.60,16.80,"$GNGGA,143434.000,4900.5291,N,00825.4175,E,2,4,8.19,159.5,M,47.9,M,,*48",,,,
2021-12-22T15:34:58+01:00,165,31.38,24.21,1009.86,14.80,16.90,"$GNGGA,143454.000,4900.5293,N,00825.4116,E,2,4,8.24,159.6,M,47.9,M,,*44",,,,
2021-12-22T15:35:19+01:00,166,31.38,24.16,1009.85,16.10,20.90,"$GNGGA,143514.000,4900.5286,N,00825.3958,E,2,4,8.29,158.6,M,47.9,M,,*4C",,,,
2021-12-22T15:35:40+01:00,167,31.38,24.10,1009.85,17.60,24.40,"$GNGGA,143535.000,4900.5286,N,00825.4130,E,2,4,8.35,157.3,M,47.9,M,,*49",,,,
2021-12-22T15:36:00+01:00,168,31.38,24.08,1009.84,19.20,25.50,"$GNGGA,143555.000,4900.5261,N,00825.4340,E,2,4,8.40,156.4,M,47.9,M,,*47",,,,
2021-12-22T15:36:20+01:00,169,31.38,24.08,1009.84,19.90,23.10,"$GNGGA,143615.000,4900.5287,N,00825.4270,E,2,4,8.46,155.2,M,47.9,M,,*49",,,,
2021-12-22T15:36:41+01:00,170,31.38,24.05,1009.84,19.30,22.30,"$GNGGA,143636.000,4900.5357,N,00825.3811,E,2,4,8.51,153.3,M,47.9,M,,*4F",,,,
2021-12-22T15:37:01+01:00,171,31.37,24.02,1009.84,19.30,23.10,"$GNGGA,143656.000,4900.5332,N,00825.4015,E,2,4,8.56,154.0,M,47.9,M,,*42",,,,
2021-12-22T15:37:21+01:00,172,31.37,24.01,1009.83,19.80,24.30,"$GNGGA,143716.000,4900.5303,N,00825.4080,E,2,4,8.61,152.5,M,47.9,M,,*4E",,,,
2021-12-22T15:37:42+01:00,173,31.37,23.89,1009.83,20.10,23.50,"$GNGGA,143737.000,4900.5233,N,00825.4388,E,2,4,8.66,150.3,M,47.9,M,,*47",,,,
2021-12-22T15:38:02+01:00,174,31.37,23.77,1009.82,19.80,23.20,"$GNGGA,143757.000,4900.5243,N,00825.4302,E,2,4,8.71,147.3,M,47.9,M,,*44",,,,
2021-12-22T15:38:21+01:00,175,31.37,23.76,1009.83,18.80,23.10,"$GNGGA,143817.000,4900.5299,N,00825.4116,E,2,4,8.74,144.6,M,47.9,M,,*4C",,,,
2021-12-22T15:38:43+01:00,176,31.37,23.72,1009.83,18.90,23.60,"$GNGGA,143838.000,4900.5303,N,00825.4079,E,6,3,8.97,144.4,M,47.9,M,,*47",,,,
2021-12-22T15:39:03+01:00,177,31.37,23.77,1009.84,18.20,21.80,"$GNGGA,143858.000,4900.5319,N,00825.3967,E,2,3,9.00,144.3,M,47.9,M,,*47",,,,
2021-12-22T15:39:23+01:00,178,31.37,23.73,1009.84,18.40,22.40,"$GNGGA,143918.000,4900.5076,N,00825.4788,E,2,4,8.88,144.1,M,47.9,M,,*44",,,,
2021-12-22T15:39:43+01:00,179,31.37,23.76,1009.84,18.10,25.10,"$GNGGA,143939.000,4900.5132,N,00825.4620,E,2,4,8.92,144.4,M,47.9,M,,*4B",,,,
2021-12-22T15:40:04+01:00,180,31.36,23.74,1009.83,18.30,26.40,"$GNGGA,143959.000,4900.5258,N,00825.4237,E,2,3,10.72,144.3,M,47.9,M,,*77",,,,
2021-12-22T15:40:24+01:00,181,31.36,23.65,1009.83,18.30,28.60,"$GNGGA,144019.000,4900.5277,N,00825.4092,E,2,3,10.88,144.4,M,47.9,M,,*7F",,,,
2021-12-22T15:40:45+01:00,182,31.36,23.49,1009.82,18.60,26.10,"$GNGGA,144040.000,4900.5272,N,00825.4133,E,2,4,9.04,144.7,M,47.9,M,,*44",,,,
2021-12-22T15:41:05+01:00,183,31.35,23.53,1009.82,18.80,26.20,"$GNGGA,144100.000,4900.5224,N,00825.4433,E,2,4,9.07,145.2,M,47.9,M,,*40",,,,
2021-12-22T15:41:25+01:00,184,31.35,23.62,1009.82,18.70,22.50,"$GNGGA,144120.000,4900.5258,N,00825.4284,E,2,4,9.10,145.5,M,47.9,M,,*42",,,,
2021-12-22T15:41:46+01:00,185,31.34,23.68,1009.81,18.00,23.10,"$GNGGA,144141.000,4900.5243,N,00825.4283,E,2,4,9.13,146.3,M,47.9,M,,*4E",,,,
2021-12-22T15:42:06+01:00,186,31.34,23.72,1009.81,18.70,23.10,"$GNGGA,144201.000,4900.5268,N,00825.4217,E,2,4,9.16,147.3,M,47.9,M,,*49",,,,
2021-12-22T15:42:26+01:00,187,31.33,23.71,1009.80,19.80,23.30,"$GNGGA,144221.000,4900.5285,N,00825.4133,E,2,4,9.19,146.9,M,47.9,M,,*49",,,,
2021-12-22T15:42:47+01:00,188,31.33,23.67,1009.80,20.50,22.80,"$GNGGA,144242.000,4900.5202,N,00825.4250,E,2,4,9.21,145.8,M,47.9,M,,*4C",,,,
2021-12-22T15:43:07+01:00,189,31.33,23.69,1009.79,18.80,20.40,"$GNGGA,144302.000,4900.5365,N,00825.3300,E,2,4,9.24,144.7,M,47.9,M,,*41",,,,
2021-12-22T15:43:26+01:00,190,31.33,23.51,1009.79,19.40,20.90,"$GNGGA,144322.000,4900.5314,N,00825.3657,E,2,3,9.28,144.9,M,47.9,M,,*47",,,,
2021-12-22T15:43:47+01:00,191,31.33,23.43,1009.78,19.40,20.40,"$GNGGA,144343.000,4900.5316,N,00825.3670,E,0,0,,144.9,M,47.9,M,,*5B",,,,
2021-12-22T15:44:07+01:00,192,31.32,23.43,1009.79,21.50,24.30,"$GNGGA,144403.000,4900.5316,N,00825.3670,E,0,0,,144.9,M,47.9,M,,*58",,,,
2021-12-22T15:44:27+01:00,193,31.33,23.37,1009.79,20.70,24.10,"$GNGGA,144423.000,4900.5316,N,00825.3670,E,0,0,,144.9,M,47.9,M,,*5A",,,,
2021-12-22T15:44:47+01:00,194,31.32,23.33,1009.78,21.10,29.40,"$GNGGA,144443.000,4900.5316,N,00825.3670,E,0,0,,144.9,M,47.9,M,,*5C",,,,
2021-12-22T15:45:07+01:00,195,31.32,23.29,1009.78,20.10,28.60,"$GNGGA,144503.000,4900.5170,N,00825.4706,E,0,3,,150.4,M,47.9,M,,*57",,,,
2021-12-22T15:45:27+01:00,196,31.32,23.23,1009.78,21.60,32.60,"$GNGGA,144523.000,4900.5110,N,00825.5114,E,0,3,,147.4,M,47.9,M,,*51",,,,
2021-12-22T15:45:47+01:00,197,31.32,23.19,1009.78,21.70,31.00,"$GNGGA,144543.000,4900.5090,N,00825.5338,E,0,3,,147.4,M,47.9,M,,*52",,,,
2021-12-22T15:46:08+01:00,198,31.32,23.18,1009.77,21.30,29.30,"$GNGGA,144603.000,4900.5096,N,00825.5292,E,2,3,9.45,146.9,M,47.9,M,,*4A",,,,
2021-12-22T15:46:28+01:00,199,31.32,23.17,1009.77,19.80,23.50,"$GNGGA,144623.000,4900.5095,N,00825.5295,E,2,4,9.35,146.9,M,47.9,M,,*4C",,,,
2021-12-22T15:46:48+01:00,200,31.32,23.17,1009.76,21.20,23.40,"$GNGGA,144643.000,4900.5169,N,00825.4871,E,2,4,9.35,147.0,M,47.9,M,,*41",,,,
2021-12-22T15:47:09+01:00,201,31.31,23.12,1009.75,22.90,28.20,"$GNGGA,144704.000,4900.5207,N,00825.4492,E,2,4,9.35,147.9,M,47.9,M,,*40",,,,
2021-12-22T15:47:29+01:00,202,31.31,23.16,1009.75,23.80,31.10,"$GNGGA,144724.000,4900.5204,N,00825.4553,E,2,4,9.34,149.8,M,47.9,M,,*43",,,,
2021-12-22T15:47:49+01:00,203,31.31,23.17,1009.74,22.60,31.50,"$GNGGA,144744.000,4900.5210,N,00825.4531,E,2,4,9.34,150.0,M,47.9,M,,*44",,,,
2021-12-22T15:48:10+01:00,204,31.31,23.14,1009.73,23.80,29.90,"$GNGGA,144805.000,4900.5266,N,00825.4275,E,2,4,9.33,149.6,M,47.9,M,,*41",,,,
2021-12-22T15:48:30+01:00,205,31.31,23.11,1009.73,24.30,28.40,"$GNGGA,144825.000,4900.5248,N,00825.4342,E,2,5,1.15,149.2,M,47.9,M,,*43",,,,
2021-12-22T15:48:50+01:00,206,31.31,23.07,1009.72,24.00,27.20,"$GNGGA,144845.000,4900.5226,N,00825.4520,E,2,4,9.32,148.8,M,47.9,M,,*48",,,,
2021-12-22T15:49:11+01:00,207,31.31,23.05,1009.71,22.90,26.50,"$GNGGA,144906.000,4900.5212,N,00825.4634,E,2,4,9.29,148.1,M,47.9,M,,*4C",,,,
2021-12-22T15:49:31+01:00,208,31.30,23.04,1009.70,22.60,26.20,"$GNGGA,144926.000,4900.5166,N,00825.4845,E,2,4,9.28,146.8,M,47.9,M,,*40",,,,
2021-12-22T15:49:52+01:00,209,31.30,23.05,1009.69,23.00,25.70,"$GNGGA,144947.000,4900.5215,N,00825.4538,E,2,4,9.26,144.4,M,47.9,M,,*47",,,,
2021-12-22T15:50:12+01:00,210,31.30,23.01,1009.68,22.40,33.10,"$GNGGA,145007.000,4900.5218,N,00825.4605,E,2,5,1.14,143.1,M,47.9,M,,*41",,,,
2021-12-22T15:50:32+01:00,211,31.30,23.03,1009.66,22.80,38.00,"$GNGGA,145027.000,4900.5219,N,00825.4576,E,2,4,9.22,142.3,M,47.9,M,,*4A",,,,
2021-12-22T15:50:52+01:00,212,31.30,23.01,1009.64,22.10,35.80,"$GNGGA,145047.000,4900.5203,N,00825.4596,E,2,4,9.20,141.1,M,47.9,M,,*4A",,,,
2021-12-22T15:51:12+01:00,213,31.30,22.95,1009.64,22.00,27.10,"$GNGGA,145107.000,4900.5183,N,00825.4820,E,2,5,1.14,139.6,M,47.9,M,,*42",,,,
2021-12-22T15:51:33+01:00,214,31.29,22.96,1009.65,23.50,24.80,"$GNGGA,145128.000,4900.5185,N,00825.4823,E,2,4,9.14,138.2,M,47.9,M,,*46",,,,
2021-12-22T15:51:53+01:00,215,31.28,23.00,1009.64,22.60,27.40,"$GNGGA,145148.000,4900.5185,N,00825.4692,E,2,5,1.14,137.5,M,47.9,M,,*45",,,,
2021-12-22T15:52:13+01:00,216,31.28,23.02,1009.64,23.70,30.20,"$GNGGA,145208.000,4900.5182,N,00825.4635,E,2,4,9.10,135.3,M,47.9,M,,*41",,,,
2021-12-22T15:52:34+01:00,217,31.28,23.01,1009.63,20.70,28.40,"$GNGGA,145229.000,4900.5163,N,00825.4802,E,2,4,9.06,134.0,M,47.9,M,,*42",,,,
2021-12-22T15:52:54+01:00,218,31.27,22.97,1009.62,22.00,27.50,"$GNGGA,145249.000,4900.5184,N,00825.4692,E,2,4,9.04,132.9,M,47.9,M,,*47",,,,
2021-12-22T15:53:14+01:00,219,31.27,22.98,1009.62,21.10,25.20,"$GNGGA,145309.000,4900.5224,N,00825.4402,E,2,4,9.00,133.2,M,47.9,M,,*4E",,,,
2021-12-22T15:53:35+01:00,220,31.27,22.92,1009.62,21.60,25.80,"$GNGGA,145330.000,4900.5208,N,00825.4457,E,2,5,1.13,134.1,M,47.9,M,,*45",,,,
2021-12-22T15:53:55+01:00,221,31.26,22.95,1009.61,22.00,26.00,"$GNGGA,145350.000,4900.5206,N,00825.4505,E,2,4,8.92,133.4,M,47.9,M,,*48",,,,
2021-12-22T15:54:15+01:00,222,31.27,22.86,1009.61,21.90,24.00,"$GNGGA,145410.000,4900.5240,N,00825.4381,E,2,4,8.90,131.7,M,47.9,M,,*40",,,,
2021-12-22T15:54:36+01:00,223,31.26,22.91,1009.61,21.50,23.00,"$GNGGA,145431.000,4900.5294,N,00825.4188,E,2,5,1.13,129.6,M,47.9,M,,*4A",,,,
2021-12-22T15:54:56+01:00,224,31.26,22.89,1009.61,22.00,23.20,"$GNGGA,145451.000,4900.5263,N,00825.4191,E,2,4,8.82,129.0,M,47.9,M,,*4A",,,,
2021-12-22T15:55:17+01:00,225,31.26,22.87,1009.60,22.60,23.80,"$GNGGA,145512.000,4900.5247,N,00825.4311,E,2,4,8.78,130.3,M,47.9,M,,*4E",,,,
2021-12-22T15:55:38+01:00,226,31.26,22.82,1009.59,22.40,24.80,"$GNGGA,145533.000,4900.5217,N,00825.4557,E,2,4,8.73,128.2,M,47.9,M,,*4F",,,,
2021-12-22T15:55:58+01:00,227,31.25,22.83,1009.59,18.90,23.60,"$GNGGA,145553.000,4900.5209,N,00825.4549,E,2,4,8.69,127.9,M,47.9,M,,*46",,,,
2021-12-22T15:56:18+01:00,228,31.25,22.84,1009.59,20.00,27.20,"$GNGGA,145613.000,4900.5241,N,00825.4198,E,2,4,8.65,126.2,M,47.9,M,,*43",,,,
2021-12-22T15:56:39+01:00,229,31.25,22.83,1009.57,20.60,27.40,"$GNGGA,145634.000,4900.5230,N,00825.4415,E,2,4,8.61,125.4,M,47.9,M,,*41",,,,
2021-12-22T15:56:59+01:00,230,31.25,22.80,1009.57,22.50,28.80,"$GNGGA,145654.000,4900.5222,N,00825.4520,E,2,4,8.58,126.1,M,47.9,M,,*4F",,,,
2021-12-22T15:57:20+01:00,231,31.24,22.79,1009.56,20.90,31.40,"$GNGGA,145715.000,4900.5193,N,00825.4739,E,2,4,8.53,126.5,M,47.9,M,,*47",,,,
2021-12-22T15:57:41+01:00,232,31.24,22.77,1009.57,21.20,29.60,"$GNGGA,145736.000,4900.5170,N,00825.4864,E,2,4,8.48,126.6,M,47.9,M,,*45",,,,
2021-12-22T15:58:01+01:00,233,31.23,22.76,1009.57,20.30,28.60,"$GNGGA,145756.000,4900.5225,N,00825.4457,E,2,4,8.44,128.7,M,47.9,M,,*4F",,,,
2021-12-22T15:58:21+01:00,234,31.23,22.73,1009.56,20.20,25.40,"$GNGGA,145816.000,4900.5265,N,00825.4532,E,2,4,8.41,124.7,M,47.9,M,,*4B",,,,
2021-12-22T15:58:42+01:00,235,31.22,22.71,1009.57,20.80,26.50,"$GNGGA,145837.000,4900.5223,N,00825.4899,E,2,5,1.12,121.2,M,47.9,M,,*48",,,,
2021-12-22T15:59:02+01:00,236,31.22,22.72,1009.57,22.00,25.70,"$GNGGA,145857.000,4900.5179,N,00825.5250,E,2,5,1.12,120.9,M,47.9,M,,*46",,,,
2021-12-22T15:59:22+01:00,237,31.22,22.70,1009.57,21.30,22.60,"$GNGGA,145917.000,4900.5182,N,00825.5225,E,2,4,8.27,119.8,M,47.9,M,,*40",,,,
2021-12-22T15:59:43+01:00,238,31.22,22.67,1009.57,21.00,23.60,"$GNGGA,145938.000,4900.5173,N,00825.5030,E,2,4,8.21,116.2,M,47.9,M,,*46",,,,
2021-12-22T16:00:03+01:00,239,31.21,22.66,1009.57,20.90,23.10,"$GNGGA,145958.000,4900.5178,N,00825.5112,E,2,3,9.73,111.8,M,47.9,M,,*46",,,,
2021-12-22T16:00:23+01:00,240,31.21,22.64,1009.56,21.10,22.80,"$GNGGA,150018.000,4900.5244,N,00825.5695,E,2,4,3.50,111.0,M,47.9,M,,*4F",,,,
2021-12-22T16:00:44+01:00,241,31.21,22.62,1009.57,20.80,22.20,"$GNGGA,150039.000,4900.5269,N,00825.5824,E,2,4,3.52,112.6,M,47.9,M,,*40",,,,
2021-12-22T16:01:04+01:00,242,31.21,22.62,1009.56,19.50,22.90,"$GNGGA,150059.000,4900.5284,N,00825.5871,E,2,4,3.54,115.0,M,47.9,M,,*42",,,,
2021-12-22T16:01:24+01:00,243,31.21,22.58,1009.56,21.50,24.90,"$GNGGA,150119.000,4900.5296,N,00825.5920,E,2,4,3.03,118.0,M,47.9,M,,*4E",,,,
2021-12-22T16:01:45+01:00,244,31.21,22.56,1009.56,20.80,28.00,"$GNGGA,150140.000,4900.5341,N,00825.5971,E,2,4,3.03,118.1,M,47.9,M,,*4C",,,,
2021-12-22T16:02:05+01:00,245,31.21,22.55,1009.56,21.20,31.40,"$GNGGA,150200.000,4900.5340,N,00825.5912,E,2,4,3.03,119.4,M,47.9,M,,*4B",,,,
2021-12-22T16:02:26+01:00,246,31.21,22.54,1009.56,20.70,33.90,"$GNGGA,150221.000,4900.5323,N,00825.5948,E,2,4,3.02,119.2,M,47.9,M,,*45",,,,
2021-12-22T16:02:46+01:00,247,31.21,22.53,1009.56,22.10,32.90,"$GNGGA,150241.000,4900.5299,N,00825.5966,E,2,4,1.99,118.6,M,47.9,M,,*4A",,,,
2021-12-22T16:03:06+01:00,248,31.21,22.51,1009.56,22.70,34.00,"$GNGGA,150301.000,4900.5262,N,00825.5939,E,2,5,1.22,117.3,M,47.9,M,,*4A",,,,
2021-12-22T16:03:27+01:00,249,31.21,22.48,1009.56,22.40,31.90,"$GNGGA,150322.000,4900.5246,N,00825.5800,E,2,5,1.22,93.6,M,47.9,M,,*7E",,,,
2021-12-22T16:03:47+01:00,250,31.21,22.51,1009.56,20.10,29.30,"$GNGGA,150342.000,4900.5164,N,00825.5498,E,2,5,1.22,73.7,M,47.9,M,,*79",,,,
2021-12-22T16:04:07+01:00,251,31.20,22.56,1009.56,19.50,25.20,"$GNGGA,150402.000,4900.5165,N,00825.5506,E,2,5,1.21,58.0,M,47.9,M,,*70",,,,
2021-12-22T16:04:28+01:00,252,31.20,22.51,1009.57,18.60,21.10,"$GNGGA,150423.000,4900.5176,N,00825.5489,E,2,5,1.21,57.2,M,47.9,M,,*7A",,,,
2021-12-22T16:04:48+01:00,253,31.19,22.49,1009.57,19.60,23.50,"$GNGGA,150443.000,4900.5181,N,00825.5502,E,2,5,1.21,55.7,M,47.9,M,,*71",,,,
2021-12-22T16:05:08+01:00,254,31.19,22.54,1009.57,20.00,24.30,"$GNGGA,150503.000,4900.5149,N,00825.5439,E,2,5,1.21,56.5,M,47.9,M,,*78",,,,
2021-12-22T16:05:30+01:00,255,31.19,22.59,1009.56,21.30,27.50,"$GNGGA,150525.000,4900.5143,N,00825.5454,E,2,5,1.21,59.7,M,47.9,M,,*70",,,,
2021-12-22T16:05:50+01:00,256,31.19,22.61,1009.57,21.00,28.20,"$GNGGA,150545.000,4900.5146,N,00825.5406,E,2,5,1.21,64.1,M,47.9,M,,*7C",,,,
2021-12-22T16:06:10+01:00,257,31.20,22.62,1009.57,20.90,28.30,"$GNGGA,150605.000,4900.5152,N,00825.5332,E,2,5,1.21,69.0,M,47.9,M,,*72",,,,
2021-12-22T16:06:31+01:00,258,31.20,22.70,1009.57,20.40,29.60,"$GNGGA,150626.000,4900.5171,N,00825.5432,E,2,4,7.29,73.5,M,47.9,M,,*74",,,,
2021-12-22T16:06:53+01:00,259,31.19,22.78,1009.57,19.80,25.30,"$GNGGA,150646.000,4900.5123,N,00825.5713,E,2,4,2.07,75.8,M,47.9,M,,*77",,,,
2021-12-22T16:07:14+01:00,260,31.19,22.85,1009.57,20.20,22.70,"$GNGGA,150709.000,4900.5099,N,00825.5840,E,2,4,2.08,76.8,M,47.9,M,,*78",,,,
2021-12-22T16:07:35+01:00,261,31.18,22.91,1009.57,21.00,25.50,"$GNGGA,150730.000,4900.5112,N,00825.5730,E,2,5,1.20,82.0,M,47.9,M,,*73",,,,
2021-12-22T16:07:55+01:00,262,31.18,22.99,1009.57,21.60,25.70,"$GNGGA,150750.000,4900.5162,N,00825.5401,E,2,5,1.20,89.8,M,47.9,M,,*70",,,,
2021-12-22T16:08:15+01:00,263,31.18,23.05,1009.57,21.80,26.00,"$GNGGA,150810.000,4900.5168,N,00825.5392,E,2,5,1.24,91.8,M,47.9,M,,*71",,,,
2021-12-22T16:08:36+01:00,264,31.18,23.09,1009.57,20.10,23.00,"$GNGGA,150831.000,4900.5175,N,00825.5360,E,2,5,1.20,91.8,M,47.9,M,,*77",,,,
2021-12-22T16:08:56+01:00,265,31.17,23.13,1009.57,20.10,25.50,"$GNGGA,150851.000,4900.5187,N,00825.5242,E,2,5,1.20,92.1,M,47.9,M,,*77",,,,
2021-12-22T16:09:16+01:00,266,31.17,23.19,1009.57,20.40,26.90,"$GNGGA,150911.000,4900.5179,N,00825.5274,E,2,4,2.13,94.2,M,47.9,M,,*71",,,,
2021-12-22T16:09:37+01:00,267,31.17,23.26,1009.57,19.80,28.40,"$GNGGA,150932.000,4900.5201,N,00825.5106,E,2,4,2.14,95.3,M,47.9,M,,*7D",,,,
2021-12-22T16:09:57+01:00,268,31.16,23.30,1009.56,19.60,27.80,"$GNGGA,150952.000,4900.5239,N,00825.4702,E,2,4,2.15,98.0,M,47.9,M,,*7C",,,,
2021-12-22T16:10:17+01:00,269,31.16,23.28,1009.56,17.50,24.60,"$GNGGA,151012.000,4900.5230,N,00825.4776,E,2,5,1.19,99.5,M,47.9,M,,*70",,,,
2021-12-22T16:10:38+01:00,270,31.16,23.36,1009.56,17.80,23.50,"$GNGGA,151033.000,4900.5239,N,00825.4843,E,2,5,1.19,100.6,M,47.9,M,,*41",,,,
2021-12-22T16:10:58+01:00,271,31.15,23.39,1009.56,17.70,24.40,"$GNGGA,151053.000,4900.5240,N,00825.4823,E,2,5,1.23,101.9,M,47.9,M,,*48",,,,
2021-12-22T16:11:18+01:00,272,31.13,23.48,1009.56,18.40,28.50,"$GNGGA,151113.000,4900.5214,N,00825.5175,E,2,5,1.23,102.4,M,47.9,M,,*49",,,,
2021-12-22T16:11:39+01:00,273,31.10,23.55,1009.56,18.80,25.70,"$GNGGA,151134.000,4900.5175,N,00825.5432,E,2,5,1.19,99.0,M,47.9,M,,*70",,,,
2021-12-22T16:11:59+01:00,274,31.07,23.62,1009.55,19.40,23.90,"$GNGGA,151154.000,4900.5173,N,00825.5392,E,2,5,1.19,99.1,M,47.9,M,,*7C",,,,
2021-12-22T16:12:19+01:00,275,31.04,23.70,1009.55,19.50,20.50,"$GNGGA,151214.000,4900.5204,N,00825.5306,E,2,5,1.19,99.3,M,47.9,M,,*77",,,,
2021-12-22T16:12:40+01:00,276,31.01,23.78,1009.56,20.30,23.90,"$GNGGA,151235.000,4900.5195,N,00825.5337,E,2,5,1.18,99.2,M,47.9,M,,*7D",,,,
2021-12-22T16:13:00+01:00,277,30.98,23.87,1009.56,18.90,22.00,"$GNGGA,151255.000,4900.5177,N,00825.5322,E,2,5,1.18,98.6,M,47.9,M,,*76",,,,
2021-12-22T16:13:20+01:00,278,30.96,23.93,1009.57,20.00,23.60,"$GNGGA,151315.000,4900.5146,N,00825.5346,E,2,4,2.24,97.7,M,47.9,M,,*70",,,,
2021-12-22T16:13:41+01:00,279,30.93,24.01,1009.58,19.80,22.20,"$GNGGA,151336.000,4900.5224,N,00825.5093,E,2,4,2.26,97.6,M,47.9,M,,*7E",,,,
2021-12-22T16:14:01+01:00,280,30.90,24.07,1009.57,22.40,25.30,"$GNGGA,151356.000,4900.5194,N,00825.5272,E,2,5,1.22,96.7,M,47.9,M,,*7B",,,,
2021-12-22T16:14:21+01:00,281,30.88,24.15,1009.57,21.30,26.40,"$GNGGA,151416.000,4900.5208,N,00825.5257,E,2,5,1.18,95.3,M,47.9,M,,*77",,,,
2021-12-22T16:14:42+01:00,282,30.86,24.23,1009.57,20.00,24.90,"$GNGGA,151437.000,4900.5169,N,00825.5236,E,2,3,11.20,92.0,M,47.9,M,,*4F",,,,
2021-12-22T16:15:02+01:00,283,30.84,24.37,1009.57,19.10,24.00,"$GNGGA,151457.000,4900.5111,N,00825.5153,E,2,4,1.19,91.7,M,47.9,M,,*7E",,,,
2021-12-22T16:15:22+01:00,284,30.83,24.38,1009.58,19.00,21.40,"$GNGGA,151517.000,4900.5083,N,00825.5415,E,2,4,1.19,91.4,M,47.9,M,,*75",,,,
2021-12-22T16:15:43+01:00,285,30.81,24.43,1009.58,19.20,23.30,"$GNGGA,151538.000,4900.5110,N,00825.5539,E,2,4,1.19,91.9,M,47.9,M,,*71",,,,
2021-12-22T16:16:03+01:00,286,30.80,24.46,1009.57,20.30,27.90,"$GNGGA,151558.000,4900.5131,N,00825.5537,E,2,4,1.66,92.1,M,47.9,M,,*79",,,,
2021-12-22T16:16:23+01:00,287,30.79,24.47,1009.56,20.60,29.10,"$GNGGA,151618.000,4900.5125,N,00825.5438,E,2,5,1.17,92.7,M,47.9,M,,*74",,,,
2021-12-22T16:16:44+01:00,288,30.77,24.49,1009.57,19.40,26.10,"$GNGGA,151639.000,4900.5124,N,00825.5203,E,2,5,1.17,91.9,M,47.9,M,,*75",,,,
2021-12-22T16:17:04+01:00,289,30.76,24.54,1009.57,17.70,20.00,"$GNGGA,151659.000,4900.5143,N,00825.5313,E,2,5,1.17,90.9,M,47.9,M,,*73",,,,
2021-12-22T16:17:24+01:00,290,30.74,24.58,1009.56,18.30,21.90,"$GNGGA,151719.000,4900.5199,N,00825.5253,E,2,5,1.17,89.8,M,47.9,M,,*7D",,,,
2021-12-22T16:17:45+01:00,291,30.73,24.65,1009.56,19.40,27.60,"$GNGGA,151740.000,4900.5160,N,00825.5383,E,2,5,1.17,90.1,M,47.9,M,,*7A",,,,
2021-12-22T16:18:05+01:00,292,30.71,24.71,1009.56,19.40,30.10,"$GNGGA,151800.000,4900.5146,N,00825.5270,E,2,5,1.17,91.1,M,47.9,M,,*79",,,,
2021-12-22T16:18:26+01:00,293,30.70,24.76,1009.55,19.10,28.70,"$GNGGA,151821.000,4900.5109,N,00825.5302,E,2,5,1.17,91.1,M,47.9,M,,*75",,,,
2021-12-22T16:18:47+01:00,294,30.69,24.77,1009.55,18.90,28.90,"$GNGGA,151842.000,4900.5081,N,00825.5333,E,2,4,1.18,92.1,M,47.9,M,,*7E",,,,
2021-12-22T16:19:07+01:00,295,30.68,24.74,1009.55,20.00,29.30,"$GNGGA,151902.000,4900.5169,N,00825.4683,E,2,4,2.87,99.5,M,47.9,M,,*79",,,,
2021-12-22T16:19:29+01:00,296,30.68,24.66,1009.54,20.30,30.10,"$GNGGA,151924.000,4900.5169,N,00825.4556,E,2,4,3.85,105.9,M,47.9,M,,*4D",,,,
2021-12-22T16:19:50+01:00,297,30.68,24.51,1009.54,22.30,30.30,"$GNGGA,151945.000,4900.5182,N,00825.4536,E,2,6,1.10,107.4,M,47.9,M,,*4A",,,,
2021-12-22T16:20:10+01:00,298,30.67,24.34,1009.54,20.20,26.80,"$GNGGA,152005.000,4900.5190,N,00825.4518,E,2,5,1.91,105.7,M,47.9,M,,*40",,,,
2021-12-22T16:20:30+01:00,299,30.67,24.11,1009.54,19.50,25.10,"$GNGGA,152025.000,4900.5183,N,00825.4534,E,2,6,1.10,105.3,M,47.9,M,,*40",,,,
2021-12-22T16:20:51+01:00,300,30.67,23.93,1009.55,17.40,22.40,"$GNGGA,152046.000,4900.5169,N,00825.4532,E,2,6,1.10,106.7,M,47.9,M,,*40",,,,
2021-12-22T16:21:11+01:00,301,30.66,23.76,1009.55,19.20,24.20,"$GNGGA,152106.000,4900.5184,N,00825.4576,E,2,6,1.15,108.3,M,47.9,M,,*49",,,,
2021-12-22T16:21:31+01:00,302,30.66,23.63,1009.55,18.40,21.10,"$GNGGA,152126.000,4900.5173,N,00825.4543,E,2,6,1.15,109.9,M,47.9,M,,*4E",,,,
2021-12-22T16:21:51+01:00,303,30.65,23.50,1009.55,17.90,19.80,"$GNGGA,152146.000,4900.5169,N,00825.4526,E,2,6,1.15,111.0,M,47.9,M,,*40",,,,
2021-12-22T16:22:11+01:00,304,30.65,23.41,1009.55,16.80,17.70,"$GNGGA,152206.000,4900.5172,N,00825.4537,E,2,6,1.15,112.8,M,47.9,M,,*46",,,,
2021-12-22T16:22:31+01:00,305,30.65,23.31,1009.55,16.70,17.60,"$GNGGA,152226.000,4900.5176,N,00825.4530,E,2,7,0.98,112.8,M,47.9,M,,*42",,,,
2021-12-22T16:22:52+01:00,306,30.65,23.23,1009.55,18.20,20.90,"$GNGGA,152247.000,4900.5178,N,00825.4558,E,2,6,1.15,112.9,M,47.9,M,,*41",,,,
2021-12-22T16:23:12+01:00,307,30.65,23.18,1009.54,18.00,25.10,"$GNGGA,152307.000,4900.5164,N,00825.4559,E,2,6,1.15,115.7,M,47.9,M,,*41",,,,
2021-12-22T16:23:33+01:00,308,30.65,23.12,1009.54,18.30,22.90,"$GNGGA,152328.000,4900.5170,N,00825.4561,E,2,6,1.15,119.4,M,47.9,M,,*4D",,,,
2021-12-22T16:23:53+01:00,309,30.64,23.08,1009.53,17.80,20.00,"$GNGGA,152348.000,4900.5199,N,00825.4355,E,2,6,1.14,116.5,M,47.9,M,,*42",,,,
2021-12-22T16:24:13+01:00,310,30.64,23.05,1009.54,17.30,18.20,"$GNGGA,152408.000,4900.5195,N,00825.4318,E,2,5,1.95,116.9,M,47.9,M,,*42",,,,
2021-12-22T16:24:34+01:00,311,30.64,23.04,1009.52,17.90,21.50,"$GNGGA,152429.000,4900.5205,N,00825.4377,E,2,5,1.95,116.7,M,47.9,M,,*4C",,,,
2021-12-22T16:24:54+01:00,312,30.64,22.99,1009.53,17.70,24.20,"$GNGGA,152449.000,4900.5204,N,00825.4404,E,2,5,1.95,117.5,M,47.9,M,,*4B",,,,
2021-12-22T16:25:14+01:00,313,30.64,22.97,1009.52,18.10,24.30,"$GNGGA,152509.000,4900.5192,N,00825.4351,E,2,6,1.14,120.3,M,47.9,M,,*4D",,,,
2021-12-22T16:25:35+01:00,314,30.64,22.97,1009.52,17.20,23.40,"$GNGGA,152530.000,4900.5176,N,00825.4412,E,2,6,1.14,122.5,M,47.9,M,,*49",,,,
2021-12-22T16:25:55+01:00,315,30.63,22.96,1009.52,16.50,20.60,"$GNGGA,152550.000,4900.5156,N,00825.4552,E,2,6,1.14,123.5,M,47.9,M,,*49",,,,
2021-12-22T16:26:15+01:00,316,30.64,22.94,1009.52,16.90,19.50,"$GNGGA,152610.000,4900.5170,N,00825.4426,E,2,6,1.14,125.9,M,47.9,M,,*42",,,,
2021-12-22T16:26:36+01:00,317,30.64,22.93,1009.53,17.10,21.50,"$GNGGA,152631.000,4900.5171,N,00825.4422,E,2,7,0.97,126.1,M,47.9,M,,*44",,,,
2021-12-22T16:26:56+01:00,318,30.63,22.93,1009.52,18.20,20.90,"$GNGGA,152651.000,4900.5152,N,00825.4400,E,2,6,1.14,127.2,M,47.9,M,,*4A",,,,
2021-12-22T16:27:16+01:00,319,30.63,22.91,1009.52,17.90,21.70,"$GNGGA,152711.000,4900.5130,N,00825.4681,E,2,7,0.97,129.6,M,47.9,M,,*41",,,,
2021-12-22T16:27:37+01:00,320,30.63,22.90,1009.52,17.30,19.50,"$GNGGA,152732.000,4900.5131,N,00825.4883,E,2,7,0.97,129.2,M,47.9,M,,*49",,,,
2021-12-22T16:27:57+01:00,321,30.63,22.89,1009.52,15.90,18.80,"$GNGGA,152752.000,4900.5182,N,00825.4577,E,2,6,1.14,130.7,M,47.9,M,,*47",,,,
2021-12-22T16:28:17+01:00,322,30.63,22.88,1009.52,16.10,20.80,"$GNGGA,152812.000,4900.5186,N,00825.4499,E,2,6,1.13,126.7,M,47.9,M,,*49",,,,
2021-12-22T16:28:38+01:00,323,30.63,22.89,1009.52,16.30,20.80,"$GNGGA,152833.000,4900.5190,N,00825.4437,E,2,6,1.13,124.2,M,47.9,M,,*4E",,,,
2021-12-22T16:28:58+01:00,324,30.63,22.91,1009.52,16.40,21.50,"$GNGGA,152853.000,4900.5191,N,00825.4351,E,2,6,1.13,121.1,M,47.9,M,,*48",,,,
2021-12-22T16:29:18+01:00,325,30.63,22.90,1009.53,16.40,21.80,"$GNGGA,152913.000,4900.5189,N,00825.4375,E,2,7,0.96,120.8,M,47.9,M,,*47",,,,
2021-12-22T16:29:39+01:00,326,30.63,22.89,1009.53,16.00,23.20,"$GNGGA,152934.000,4900.5171,N,00825.4439,E,2,6,1.13,122.1,M,47.9,M,,*4C",,,,
2021-12-22T16:29:59+01:00,327,30.63,22.90,1009.55,16.20,23.10,"$GNGGA,152954.000,4900.5173,N,00825.4459,E,2,6,1.13,125.3,M,47.9,M,,*4B",,,,
2021-12-22T16:30:19+01:00,328,30.63,22.88,1009.55,16.20,20.50,"$GNGGA,153014.000,4900.5194,N,00825.4311,E,2,6,1.13,129.2,M,47.9,M,,*48",,,,
2021-12-22T16:30:40+01:00,329,30.63,22.89,1009.55,16.90,19.60,"$GNGGA,153035.000,4900.5167,N,00825.4454,E,2,6,1.13,129.7,M,47.9,M,,*44",,,,
2021-12-22T16:31:00+01:00,330,30.63,22.87,1009.55,16.80,19.90,"$GNGGA,153055.000,4900.5162,N,00825.4493,E,2,6,1.13,135.5,M,47.9,M,,*43",,,,
2021-12-22T16:31:20+01:00,331,30.63,22.86,1009.55,15.70,18.40,"$GNGGA,153115.000,4900.5112,N,00825.4505,E,2,6,1.00,139.5,M,47.9,M,,*41",,,,
2021-12-22T16:31:41+01:00,332,30.63,22.86,1009.55,16.10,17.00,"$GNGGA,153136.000,4900.5052,N,00825.4492,E,2,7,0.96,144.0,M,47.9,M,,*4A",,,,
2021-12-22T16:32:01+01:00,333,30.63,22.87,1009.55,17.20,18.40,"$GNGGA,153156.000,4900.5146,N,00825.4753,E,2,7,0.96,147.8,M,47.9,M,,*4D",,,,
2021-12-22T16:32:21+01:00,334,30.63,22.85,1009.55,17.80,19.90,"$GNGGA,153216.000,4900.5159,N,00825.4739,E,2,7,0.96,151.9,M,47.9,M,,*4E",,,,
2021-12-22T16:32:41+01:00,335,30.63,22.84,1009.55,16.90,20.50,"$GNGGA,153236.000,4900.5194,N,00825.4803,E,2,7,0.95,156.5,M,47.9,M,,*43",,,,
2021-12-22T16:33:01+01:00,336,30.63,22.85,1009.55,15.60,18.60,"$GNGGA,153256.000,4900.5250,N,00825.4695,E,2,7,0.95,159.9,M,47.9,M,,*4C",,,,
2021-12-22T16:33:21+01:00,337,30.63,22.84,1009.54,15.80,20.70,"$GNGGA,153316.000,4900.5169,N,00825.4572,E,2,6,0.98,161.7,M,47.9,M,,*43",,,,
2021-12-22T16:33:42+01:00,338,30.63,22.84,1009.54,16.10,21.30,"$GNGGA,153337.000,4900.5130,N,00825.4599,E,2,5,1.18,162.8,M,47.9,M,,*4F",,,,
2021-12-22T16:34:02+01:00,339,30.63,22.84,1009.54,16.20,24.00,"$GNGGA,153357.000,4900.5283,N,00825.4787,E,2,5,1.72,159.9,M,47.9,M,,*4A",,,,
2021-12-22T16:34:22+01:00,340,30.64,22.82,1009.53,16.60,21.00,"$GNGGA,153417.000,4900.5352,N,00825.4778,E,2,5,1.72,150.9,M,47.9,M,,*4D",,,,
2021-12-22T16:34:43+01:00,341,30.64,22.82,1009.53,17.10,23.10,"$GNGGA,153438.000,4900.5351,N,00825.4766,E,2,5,1.72,138.2,M,47.9,M,,*49",,,,
2021-12-22T16:35:03+01:00,342,30.64,22.82,1009.52,17.60,21.40,"$GNGGA,153458.000,4900.5376,N,00825.4817,E,2,5,1.71,131.2,M,47.9,M,,*49",,,,
2021-12-22T16:35:23+01:00,343,30.64,22.82,1009.53,18.10,24.70,"$GNGGA,153518.000,4900.5370,N,00825.4843,E,2,5,1.71,126.6,M,47.9,M,,*49",,,,
2021-12-22T16:35:44+01:00,344,30.64,22.81,1009.53,17.90,22.70,"$GNGGA,153539.000,4900.5319,N,00825.4667,E,2,5,1.71,128.9,M,47.9,M,,*4C",,,,
2021-12-22T16:36:04+01:00,345,30.64,22.82,1009.53,17.90,25.40,"$GNGGA,153559.000,4900.5387,N,00825.4741,E,2,5,1.71,124.0,M,47.9,M,,*4D",,,,
2021-12-22T16:36:24+01:00,346,30.65,22.79,1009.53,16.70,24.70,"$GNGGA,153619.000,4900.5351,N,00825.4735,E,2,6,1.38,123.4,M,47.9,M,,*4F",,,,
2021-12-22T16:36:45+01:00,347,30.65,22.81,1009.53,16.50,22.20,"$GNGGA,153640.000,4900.5329,N,00825.4840,E,2,6,1.38,126.0,M,47.9,M,,*40",,,,
2021-12-22T16:37:05+01:00,348,30.65,22.79,1009.54,14.90,20.10,"$GNGGA,153700.000,4900.5353,N,00825.4856,E,2,5,1.57,129.6,M,47.9,M,,*4C",,,,
2021-12-22T16:37:25+01:00,349,30.65,22.78,1009.55,14.90,19.10,"$GNGGA,153720.000,4900.5355,N,00825.4828,E,2,5,1.57,130.6,M,47.9,M,,*49",,,,
2021-12-22T16:37:46+01:00,350,30.65,22.83,1009.56,14.30,21.80,"$GNGGA,153741.000,4900.5311,N,00825.4747,E,2,5,1.57,131.7,M,47.9,M,,*48",,,,
2021-12-22T16:38:06+01:00,351,30.65,22.92,1009.57,15.70,20.50,"$GNGGA,153801.000,4900.5218,N,00825.4705,E,2,6,1.37,134.0,M,47.9,M,,*4A",,,,
2021-12-22T16:38:26+01:00,352,30.66,22.98,1009.57,16.40,19.90,"$GNGGA,153821.000,4900.5224,N,00825.4756,E,2,5,1.69,135.4,M,47.9,M,,*4C",,,,
2021-12-22T16:38:47+01:00,353,30.66,23.08,1009.57,18.60,22.30,"$GNGGA,153842.000,4900.5197,N,00825.4673,E,2,4,1.79,140.0,M,47.9,M,,*42",,,,
2021-12-22T16:39:07+01:00,354,30.66,23.25,1009.58,19.20,22.70,"$GNGGA,153902.000,4900.5228,N,00825.4728,E,2,5,1.69,141.0,M,47.9,M,,*4E",,,,
2021-12-22T16:39:27+01:00,355,30.66,23.41,1009.59,20.10,22.60,"$GNGGA,153922.000,4900.5153,N,00825.4616,E,2,5,1.69,140.2,M,47.9,M,,*4C",,,,
2021-12-22T16:39:48+01:00,356,30.66,23.56,1009.59,20.20,25.80,"$GNGGA,153943.000,4900.5214,N,00825.4671,E,2,5,1.86,136.3,M,47.9,M,,*4B",,,,
2021-12-22T16:40:08+01:00,357,30.65,23.55,1009.60,20.40,32.50,"$GNGGA,154003.000,4900.5206,N,00825.4564,E,2,5,1.68,133.2,M,47.9,M,,*41",,,,
2021-12-22T16:40:28+01:00,358,30.65,23.63,1009.60,20.20,38.40,"$GNGGA,154023.000,4900.5168,N,00825.4474,E,2,5,1.68,129.7,M,47.9,M,,*46",,,,
2021-12-22T16:40:49+01:00,359,30.65,23.73,1009.61,19.70,36.10,"$GNGGA,154044.000,4900.5231,N,00825.4723,E,2,4,2.33,126.5,M,47.9,M,,*48",,,,
2021-12-22T16:41:09+01:00,360,30.64,23.80,1009.61,19.30,31.50,"$GNGGA,154104.000,4900.5244,N,00825.4755,E,2,4,2.32,125.3,M,47.9,M,,*4A",,,,
2021-12-22T16:41:29+01:00,361,30.64,23.87,1009.61,19.00,31.80,"$GNGGA,154124.000,4900.5293,N,00825.4757,E,2,4,2.32,125.2,M,47.9,M,,*41",,,,
2021-12-22T16:41:50+01:00,362,30.64,23.93,1009.62,18.40,36.70,"$GNGGA,154145.000,4900.5265,N,00825.4716,E,2,4,2.32,125.0,M,47.9,M,,*48",,,,
2021-12-22T16:42:11+01:00,363,30.65,23.97,1009.63,17.90,38.30,"$GNGGA,154206.000,4900.5319,N,00825.4823,E,2,5,1.67,121.5,M,47.9,M,,*4C",,,,
2021-12-22T16:42:31+01:00,364,30.66,24.01,1009.63,18.20,32.00,"$GNGGA,154226.000,4900.5264,N,00825.4743,E,2,5,1.67,120.4,M,47.9,M,,*4C",,,,
2021-12-22T16:42:52+01:00,365,30.67,24.04,1009.63,18.60,25.10,"$GNGGA,154247.000,4900.5237,N,00825.4669,E,2,5,1.88,120.7,M,47.9,M,,*46",,,,
2021-12-22T16:43:12+01:00,366,30.67,24.10,1009.63,18.50,21.10,"$GNGGA,154307.000,4900.5216,N,00825.4675,E,2,5,1.67,120.3,M,47.9,M,,*48",,,,
2021-12-22T16:43:32+01:00,367,30.68,24.13,1009.63,18.10,21.70,"$GNGGA,154327.000,4900.5242,N,00825.4668,E,2,4,2.31,120.9,M,47.9,M,,*4C",,,,
2021-12-22T16:43:53+01:00,368,30.69,24.15,1009.64,18.20,23.50,"$GNGGA,154348.000,4900.5241,N,00825.4665,E,2,4,2.31,121.1,M,47.9,M,,*42",,,,
2021-12-22T16:44:13+01:00,369,30.69,24.16,1009.64,18.40,25.80,"$GNGGA,154408.000,4900.5299,N,00825.4667,E,2,4,2.31,121.1,M,47.9,M,,*46",,,,
2021-12-22T16:44:33+01:00,370,30.70,24.23,1009.65,19.30,26.70,"$GNGGA,154429.000,4900.5215,N,00825.4798,E,0,1,,121.3,M,47.9,M,,*5B",,,,
2021-12-22T16:44:54+01:00,371,30.70,24.28,1009.64,18.90,28.30,"$GNGGA,154450.000,4900.5138,N,00825.4714,E,0,3,,135.6,M,32.8,M,,*5C",,,,
2021-12-22T16:45:22+01:00,372,30.70,24.36,1009.63,19.10,27.90,"$GNGGA,154517.000,4900.5243,N,00825.4818,E,6,0,99.99,119.8,M,47.9,M,,*7A",,,,
2021-12-22T16:45:45+01:00,373,30.70,24.42,1009.64,16.40,24.80,"$GNGGA,154540.000,4900.5260,N,00825.4772,E,2,4,1.76,143.0,M,47.9,M,,*4D",,,,
2021-12-22T16:46:06+01:00,374,30.70,24.44,1009.64,16.40,22.20,"$GNGGA,154601.000,4900.5218,N,00825.4647,E,2,4,1.76,84.2,M,47.9,M,,*7B",,,,
2021-12-22T16:46:26+01:00,375,30.70,24.48,1009.63,17.00,23.10,"$GNGGA,154622.000,4900.5217,N,00825.4647,E,0,1,,84.2,M,47.9,M,,*6C",,,,
2021-12-22T16:46:47+01:00,376,30.70,24.50,1009.63,17.40,24.80,"$GNGGA,154642.000,4900.5219,N,00825.4629,E,6,3,15.41,84.5,M,47.9,M,,*40",,,,
2021-12-22T16:47:08+01:00,377,30.71,24.48,1009.62,16.90,24.00,"$GNGGA,154703.000,4900.5166,N,00825.4557,E,2,4,1.76,102.5,M,47.9,M,,*48",,,,
2021-12-22T16:47:44+01:00,378,30.72,24.51,1009.62,17.00,22.90,"$GNGGA,154723.000,4900.5195,N,00825.4591,E,2,4,1.42,109.1,M,47.9,M,,*44",,,,
